Time,X_pos_Lat,X_pos_Lon,Y_pos_m,Z_pos_m,vx_ms,vy_ms,vz_ms,Roll_rad,Pitch_rad,Yaw_rad,Hundimiento_mm,Alineacion_mm
<<<<<<< HEAD
0.0,47.82491,13.040437,423.98077,0.0,0.00075226557,-0.010477392,14.981681,2.2905923340903846e-05,-0.0040716715,-0.0072863176,1816369.2299999997,-2.3337845
0.01,47.825558,13.040407,423.98203,0.14979274,0.0010567578,-0.011891006,14.979274,3.7937282211764624e-05,-0.002981577,-0.010654466,1816367.9699999997,-3.1302497000000002
0.02,47.823833,13.040436,423.98328,0.29960788000000005,0.0038581453,-0.005416928,14.981514,-2.1860627174204976e-05,-0.0013393946,-0.0032243151,1816366.72,-4.578104199999999
0.03,47.822227,13.040454,423.98438,0.4494207,0.004475246,-0.0075953454,14.981282,-1.2097560975017147e-05,-0.0016309656,-0.005149534,1816365.62,-3.813468
0.04,47.82475,13.040443,423.98108,0.5992566800000001,0.0018118825,-0.008499341,14.983598,-3.207665504128451e-05,-0.00046278164,-0.0053650867,1816368.92,-7.873847999999999
0.05,47.821457,13.040447,423.98465,0.7491015200000002,0.0042126393,-0.0059485454,14.984484,1.4313588849184631e-05,0.0010020621,-0.0039437152,1816365.35,-7.314604
0.06,47.823277,13.040439,423.98218,0.8989170100000001,0.0027696574,-0.007998927,14.981549,6.445993031236015e-06,-0.000515149,-0.0051230807,1816367.8199999998,-5.228795
0.07,47.82452,13.040421,423.98074,1.0487403000000002,0.001400874,-0.009368572,14.982329,-1.6376306620044845e-06,-0.0023928788,-0.005576806,1816369.26,-4.136497
0.08,47.82469,13.040428,423.98193,1.1985517600000002,0.0013888841,-0.008510616,14.981146,-2.8571428571308997e-06,-0.002829451,-0.0048546847,1816368.07,-4.658865
0.09,47.822884,13.040484,423.98422,1.3483715250000001,0.002831744,-0.009225594,14.9819765,3.147038326487893e-05,-0.0016859844,-0.00544665,1816365.7799999998,-3.9240250000000003
0.1,47.817677,13.040398,423.98938,1.4981038350000002,0.009768898,-0.0032333937,14.973231,5.862717763318954e-05,-0.0015817322,-0.006230019,1816360.6199999999,1.5842961
0.11,47.820988,13.040459,423.98645,1.647898555,0.0052938256,-0.006725494,14.979472,-6.801393728137921e-06,-0.0013377946,-0.0041800756,1816363.55,-2.0105783
0.12,47.82151,13.040485,423.9841,1.797720855,0.007068117,-0.0040136594,14.98223,-7.735191637475692e-06,-0.00029676408,-0.0015861578,1816365.8999999997,-4.1330922
0.13,47.823215,13.04047,423.98123,1.947571305,0.0025147554,-0.008341379,14.985045,1.1337979093604755e-05,-0.0009807032,-0.004312476,1816368.77,-6.300058
0.14,47.822403,13.040409,423.9844,2.097375145,0.0040808935,-0.007430788,14.980384,-3.912195119957237e-05,-0.00080298074,-0.005334379,1816365.5999999999,-6.4557212999999996
0.15,47.822124,13.040438,423.98254,2.2471604349999996,0.008186799,-0.0023916308,14.978529,5.226480831477239e-05,-0.0021391138,-0.001958495,1816367.46,-0.3338121
0.16,47.82039,13.040469,423.98502,2.396963825,0.0060273977,-0.005462773,14.980339,-1.3170731706576801e-05,-0.000102799386,-0.0031719003,1816364.9799999997,-1.2204181
0.17,47.821182,13.040454,423.9837,2.546737075,0.004309551,-0.005899649,14.977325,3.5853658521214206e-05,-0.0013083685,-0.005331408,1816366.2999999998,1.1212975
0.18,47.819946,13.040475,423.98508,2.6965449749999997,0.0058748284,-0.0067341607,14.98079,-1.3226480835465033e-05,0.0006084563,-0.003909478,1816364.92,-2.4504922
0.19,47.822453,13.040453,423.98438,2.8463627349999996,0.004260528,-0.006541513,14.981776,-5.484320557414362e-06,-0.00102905,-0.0041200463,1816365.62,-4.6623927
0.2,47.822433,13.04046,423.98145,2.996136825,0.0008407431,-0.009337455,14.977409,1.1916376306035822e-05,-0.0008148253,-0.007564625,1816368.5499999998,-2.5816336
0.21,47.82454,13.040426,423.98276,3.1459724349999996,0.0018100543,-0.008677969,14.983561,-3.315679441292414e-05,-0.00083732605,-0.0044503417,1816367.24,-5.338871999999999
0.22,47.822495,13.040473,423.9861,3.2957723249999997,0.004269353,-0.0069735534,14.979989,1.3205574912097297e-05,-0.0012227632,-0.004734507,1816363.9,-4.5118127
0.23,47.82356,13.040461,423.98254,3.4455763349999997,0.0039829724,-0.007389812,14.980401,3.8592334475623704e-05,-0.0025934987,-0.0064077303,1816367.46,-4.8397724
0.24,47.825966,13.0404625,423.9787,3.5954030999999995,0.0004691761,-0.009463543,14.9826765,-1.4355400695879206e-05,0.00014769658,-0.0041077994,1816371.2999999998,-5.8547948000000005
0.25,47.82074,13.040454,423.98087,3.7452106599999997,0.0041097077,-0.0068897773,14.980756,2.3142857138723242e-05,-0.00038882252,-0.0056180414,1816369.1300000001,-1.4922469999999999
0.26,47.821114,13.040457,423.98486,3.8950302399999996,0.004841934,-0.0068968125,14.981958,-1.4912891984976916e-05,-0.0017678458,-0.0049203057,1816365.14,-3.3627152000000002
0.27,47.82493,13.04044,423.98236,4.044839039999999,0.0016606152,-0.008890495,14.98088,-1.0222996515339838e-05,-0.0020954441,-0.006409889,1816367.64,-4.738223
0.28,47.823174,13.040465,423.9846,4.19464789,0.0034738686,-0.007813577,14.980885,6.954703832629723e-06,-0.0022518896,-0.004290724,1816365.4,-3.0096564
0.29,47.822906,13.0404415,423.9842,4.344463334999999,0.0027330434,-0.007871237,14.9815445,-4.184668987103667e-05,-0.0031924788,-0.004268065,1816365.8,-4.2477977
0.3,47.82217,13.04046,423.9841,4.494269264999999,0.0037666364,-0.007856512,14.980593,1.2543554006982343e-06,-0.0017200001,-0.0051756687,1816365.8999999997,-2.18842
0.31,47.81738,13.040418,423.98965,4.644019324999999,0.011200255,-0.0014288686,14.975006,6.345644590787654e-05,0.0012790449,-0.004509257,1816360.3499999999,1.4759554000000001
0.32,47.819714,13.040447,423.98093,4.793834724999999,0.0057369582,-0.0041078366,14.98154,-2.7456445992962745e-06,0.002354729,-0.0034757555,1816369.07,-3.3430643
0.33,47.821724,13.040462,423.9826,4.943660974999999,0.0037435768,-0.008226978,14.982625,1.0759581881126488e-05,-0.00023346674,-0.004028283,1816367.4,-4.248714
0.34,47.823273,13.040466,423.9823,5.093475294999999,0.0024578217,-0.008981936,14.981432,1.1526132403684997e-05,-0.0035609156,-0.0059435163,1816367.6999999997,-3.58361
0.35,47.822456,13.040477,423.98328,5.243314944999999,0.0029722974,-0.009027006,14.983965,-1.4076655051326987e-05,-0.0007630605,-0.004619686,1816366.72,-5.4009836
0.36,47.82623,13.0404825,423.97986,5.393137374999999,0.002313109,-0.009045346,14.982243,5.061324037490243e-05,-0.003416501,-0.0042389873,1816370.14,-4.2962674
0.37,47.821125,13.040466,423.98438,5.542924204999999,0.0061758896,-0.0056079756,14.978683,6.28153309278483e-05,-0.0012777038,-0.005683018,1816365.62,-0.5880854999999999
0.38,47.81996,13.040491,423.9839,5.692732325,0.005041467,-0.0068430826,14.980812,-3.498257839708239e-06,0.0006330777,-0.004023239,1816366.0999999999,-2.563985
0.39,47.821957,13.04049,423.98227,5.842538465,0.00400367,-0.007284483,14.980614,4.91289198601793e-06,-0.001268208,-0.003465511,1816367.73,-2.4092626
0.4,47.82158,13.0404825,423.98517,5.992363245,0.0044900244,-0.0059274416,14.982478,-2.922648082792295e-05,0.0005652765,-0.0044779927,1816364.83,-4.804476999999999
0.41,47.824,13.040483,423.98407,6.142198515,0.0026261518,-0.010757854,14.983527,1.6989547036698342e-05,-0.0023707505,-0.0046995133,1816365.93,-2.2119358
0.42,47.81981,13.040487,423.98413,6.292015415,0.004897341,-0.0055636913,14.98169,5.254355400652604e-06,0.0021197582,-0.00313049,1816365.8699999999,-3.5825595
0.43,47.8194,13.040482,423.98428,6.441851595,0.0052014235,-0.0061733816,14.983618,3.250174214881193e-05,0.00028495025,-0.00023309141,1816365.7199999997,-3.6371070000000003
0.44,47.82101,13.040491,423.98013,6.591688475000001,0.002931783,-0.0073807724,14.983688,6.996515679330856e-06,0.00015672296,-0.0045403,1816369.8699999999,-4.1746385
0.45,47.821144,13.0405,423.98206,6.741480215000001,0.0040527023,-0.008530194,14.979174,7.860627161509725e-05,-0.0013511088,-0.0063286833,1816367.94,-2.793055
0.46,47.82422,13.040482,423.98224,6.891296445000001,0.002008331,-0.010378899,14.981623,1.4445993030364142e-05,-0.0020355098,-0.004544515,1816367.7599999998,-1.6968343000000001
0.47,47.8267,13.040454,423.981,7.041139635,0.00056211,-0.0135066565,14.984319,2.3080139368721797e-05,-0.0010395739,-0.008687656,1816369.0,-5.5442117
0.48,47.820107,13.040451,423.98456,7.190950205000001,0.0040102173,-0.0058968384,14.981057,-3.5686411134694754e-05,-0.00073861144,-0.002015926,1816365.44,-2.6545692
0.49,47.819614,13.040501,423.985,7.340763365000001,0.0059909383,-0.0063979942,14.981316,-1.3247386758793149e-05,-0.0005012816,-0.003862325,1816364.9999999998,-1.8021334
0.5,47.823704,13.040488,423.9831,7.490599385000001,0.003661016,-0.0069881324,14.983602,-7.2055749127569245e-06,0.0003260728,-0.003111044,1816366.9,-5.512992000000001
0.51,47.81779,13.040449,423.98575,7.640382935000002,0.010661754,-0.0014312137,14.978355,4.94773519158325e-06,0.0035231272,-0.0019387305,1816364.2499999998,-0.6269943
0.52,47.819225,13.040489,423.98175,7.790198965000002,0.0040309737,-0.006856935,14.981603,-2.5860627171924393e-05,-0.000187831,-0.0016574468,1816368.25,-1.2170877
0.53,47.820724,13.040513,423.98352,7.940004785000002,0.004400392,-0.006868867,14.980582,-1.5268292681734253e-05,0.0009281328,-0.0018066969,1816366.48,0.43469294999999997
0.54,47.819206,13.040448,423.98465,8.089798145000001,0.004701729,-0.005479129,14.979336,-1.4264808361433647e-05,-0.000773496,-0.0011324156,1816365.35,1.2021922
0.55,47.820072,13.04047,423.98212,8.239628815000001,0.0032942966,-0.004975658,14.983067,-1.399999999911237e-05,0.003441466,-0.00060202926,1816367.88,-5.8835186
0.56,47.819603,13.040509,423.98486,8.389438995,0.0072844634,-0.003510004,14.981018,1.1317073170236046e-05,-7.116608e-05,-0.003236793,1816365.14,-1.7523206999999998
0.57,47.8222,13.040466,423.9837,8.539270774999999,0.0046200715,-0.005662579,14.983178,-2.368641114536834e-05,0.00096350815,-0.0034810938,1816366.2999999998,-6.472633999999999
0.58,47.82222,13.040491,423.98532,8.689101325,0.0042672176,-0.007729722,14.983055,-1.823693379591271e-05,-0.002086904,-0.004173495,1816364.68,-3.7429389000000004
0.59,47.82212,13.040497,423.98383,8.838904274999999,0.0034325756,-0.005560601,14.980295,-3.774912890192925e-05,-0.0016779546,-0.0035277922,1816366.1699999997,-3.6368034999999996
0.6,47.82005,13.040519,423.98422,8.988716505,0.0049647475,-0.006785266,14.981223,-2.0411149822951634e-05,-0.0011216011,-0.0037252754,1816365.7799999998,-0.34006312
0.61,47.823563,13.040469,423.9815,9.13853771,0.0023457734,-0.009490492,14.9821205,-3.567944250839702e-06,-0.0034142584,-0.0057469755,1816368.5,-4.079651
0.62,47.82128,13.040504,423.98532,9.288343209999999,0.004549628,-0.007130036,14.98055,-2.508710801397732e-07,-0.002504278,-0.005110288,1816364.68,-1.9426681000000001
0.63,47.8177,13.040556,423.9848,9.438134419999999,0.0072339624,-0.0034354664,14.979121,3.900348430078064e-05,0.00013181102,-0.0009770468,1816365.2,-0.45717694
0.64,47.818325,13.0405445,423.98746,9.5879547,0.007496193,-0.0052674636,14.982028,-1.2243902438436747e-05,-0.00020451192,-0.0016086157,1816362.5399999998,-2.2604726
0.65,47.821815,13.040469,423.98422,9.737791159999999,0.0037256647,-0.005209977,14.983646,-5.5052264752751177e-05,0.00058473274,-0.002284564,1816365.7799999998,-5.4559745
0.66,47.821033,13.040503,423.98474,9.887598859999999,0.004654195,-0.0041201115,14.98077,-2.4076655047629435e-05,-0.0016318392,-0.0010745712,1816365.26,-2.7743336000000003
0.67,47.8218,13.040505,423.98477,10.037441789999999,0.0044673644,-0.007414803,14.984293,-3.825783972112956e-06,-0.0017640591,-0.0045444854,1816365.23,-4.3473690000000005
0.68,47.819675,13.040545,423.98514,10.18727515,0.005199208,-0.0057316106,14.983336,-1.2961672474013334e-06,-0.0008651875,-0.0024652425,1816364.8599999999,-3.2232106
0.69,47.8224,13.040504,423.98474,10.337072339999999,0.004969134,-0.0057681017,14.979719,4.2062717745230035e-05,-0.0033332687,-0.0032136887,1816365.26,-2.4442598
0.7,47.82073,13.040521,423.9834,10.4868849,0.004335543,-0.007455999,14.981256,4.554006965490614e-05,-0.0030165166,-0.005777376,1816366.5999999999,-0.7039271300000001
0.71,47.821445,13.04054,423.98502,10.636699459999999,0.005999107,-0.007452136,14.981456,3.156794424038312e-05,-0.0029883217,-0.0027316716,1816364.9799999997,-1.7638858
0.72,47.819267,13.040519,423.98398,10.786505,0.0053045386,-0.006966904,14.980554,1.3226480835465033e-05,7.0090406e-05,-0.0034163818,1816366.02,0.00304915
0.73,47.81845,13.040511,423.98587,10.936321065,0.0060397247,-0.0028409585,14.9816065,-5.402787451190754e-05,0.0026595397,-7.7821314e-05,1816364.13,-1.8037092
0.74,47.82165,13.040506,423.98578,11.086122885,0.0040652445,-0.0069927573,14.980182,9.477351916129885e-06,-0.0033085234,-0.003283495,1816364.22,-1.1775643
0.75,47.81893,13.040482,423.9867,11.235934595,0.0057347147,-0.007148916,14.981171,-1.9414634143924747e-05,-0.00022059027,-0.0039681643,1816363.3,-1.5306026
0.76,47.8211,13.040524,423.98492,11.385724325,0.0046473574,-0.0060223676,14.978973,3.3275261311765936e-05,-0.0036082752,-0.0039844066,1816365.08,-0.22840314
0.77,47.820656,13.040487,423.98492,11.535550445,0.0045251725,-0.0075545795,14.982612,-7.916376306472038e-06,3.722962e-05,-0.0032482017,1816365.08,-3.076326
0.78,47.816288,13.040465,423.9862,11.685297945,0.0065591224,-0.004951166,14.97475,9.5470383272163e-06,-0.00038426835,-0.008058444,1816363.7999999998,2.9128063
0.79,47.82085,13.040533,423.98676,11.835112495,0.005131295,-0.005541427,14.981455,-4.2996515652967726e-05,9.390619e-05,7.624179e-05,1816363.24,-1.6548466
0.8,47.82322,13.040485,423.983,11.984925465,0.0027609775,-0.008835407,14.981297,-5.128919860586096e-06,-0.0034408867,-0.00442446,1816367.0,-2.7539209
0.81,47.8189,13.0405245,423.9847,12.134753355,0.0063007753,-0.0052325707,14.982789,-2.5365853653106436e-05,0.0016303891,-0.0025595222,1816365.3,-4.466962
0.82,47.81967,13.040518,423.98178,12.284554374999999,0.0034209993,-0.0062276386,14.980102,1.3937282230427737e-07,-0.001907818,-0.0052048173,1816368.2199999997,-0.7340945299999999
0.83,47.81974,13.040526,423.98734,12.434374349999999,0.0058387965,-0.007485062,14.9819975,1.1630662020369484e-05,-0.002241727,-0.0011758767,1816362.6599999997,0.22130087
0.84,47.81855,13.040531,423.98386,12.584197389999998,0.005253219,-0.0060403347,14.982304,-2.7728222989436584e-05,0.0011160839,-0.0032910034,1816366.14,-2.8566084999999997
0.85,47.819767,13.040516,423.9843,12.733991669999998,0.0068904087,-0.0037952624,14.979428,1.3156794424305215e-05,-0.0018000118,-0.0014708042,1816365.6999999997,0.18309243
0.86,47.82237,13.040489,423.98413,12.883810469999998,0.0037629446,-0.0070766807,14.98188,-2.0160278742915092e-05,-0.0020640306,-0.0033920817,1816365.8699999999,-3.8964580000000004
0.87,47.820568,13.04051,423.9836,13.03362569,0.004829405,-0.0075352844,14.981522,2.829268292701959e-06,-0.0012847017,-0.0041521825,1816366.4,-2.7822647
0.88,47.82033,13.040507,423.98517,13.18345561,0.005074787,-0.0060472135,14.982992,-2.9470383266715647e-05,0.00030479115,-0.0035563428,1816364.83,-4.5071933
0.89,47.82113,13.040522,423.98315,13.33328416,0.0043549407,-0.0048664715,14.982855,-7.168641102702542e-05,0.0011655884,-0.0010689665,1816366.8499999999,-4.6232194
0.9,47.824955,13.04046,423.981,13.48311297,0.00081047695,-0.012975095,14.982881,-2.1052264805220284e-05,-0.0033315253,-0.008551827,1816369.0,-2.680881
0.91,47.81887,13.040579,423.984,13.6329545,0.006732378,-0.004105607,14.984153,-6.234146333385362e-05,0.0020592678,-0.0004643984,1816366.0,-4.974559
0.92,47.82166,13.040539,423.9847,13.78278996,0.004708699,-0.008111889,14.983546,5.567944250818142e-06,-0.0010951292,-0.0034954585,1816365.3,-2.9803086
0.93,47.820503,13.040546,423.98032,13.932605220000001,0.003751655,-0.007833,14.981526,3.685714284044691e-05,0.00037733465,-0.0028556697,1816369.6799999997,-3.111368
0.94,47.819725,13.040571,423.98718,14.0824594,0.0058983313,-0.0061356705,14.985418,-1.848083623479367e-05,5.055312e-05,0.000479443,1816362.8199999998,-1.6647763999999998
0.95,47.819256,13.040549,423.98483,14.23227223,0.0057846205,-0.006707063,14.981283,1.6376306620440966e-06,-0.0018430259,-0.0023993663,1816365.17,0.38828514999999997
0.96,47.819008,13.040545,423.98535,14.38208526,0.0060162935,-0.0035697166,14.981303,-3.9191637610597856e-05,0.00044400245,-0.00049415976,1816364.65,0.25720336
0.97,47.82097,13.0405,423.97916,14.53189626,0.0034663435,-0.005758822,14.9811,-1.8369337977035633e-05,-0.0005724225,-0.002597075,1816370.84,-3.1455941
0.98,47.82224,13.040521,423.98495,14.68171542,0.0027207853,-0.00992501,14.981916,-6.693379780948362e-05,-0.0023038276,-0.0029185656,1816365.0499999998,-0.093581155
0.99,47.820076,13.040524,423.98434,14.83152446,0.0054198606,-0.007788971,14.980904,-1.146341463365834e-05,-0.0030048229,-0.0045370124,1816365.66,-2.123367
1.0,47.81831,13.040599,423.98636,14.9813705,0.0065361382,-0.0047477093,14.984604,2.6271776997420864e-05,0.00096137915,0.00022110902,1816363.6400000001,-3.4038965
1.01,47.819645,13.040491,423.9846,15.131169685000001,0.006109626,-0.0039277766,14.9799185,-2.5087108013925213e-06,0.00037927367,-0.0035253782,1816365.4,-0.22858195
1.02,47.821266,13.040505,423.98376,15.280995010000002,0.004319554,-0.005343953,14.9825325,-3.082229964178682e-05,-0.00015361886,-0.0015918817,1816366.2399999998,-4.3647233
1.03,47.818207,13.040521,423.98288,15.430837370000003,0.0057015186,-0.0054046456,14.984236,-1.7226480834534384e-05,0.0019950634,-0.0014758538,1816367.1199999999,-3.7042126
1.04,47.81977,13.040513,423.98444,15.580657670000003,0.0055766245,-0.0041754358,14.98203,-4.627177697045169e-05,0.0013291165,-0.0015372671,1816365.56,-3.8969498000000002
1.05,47.819267,13.040521,423.9854,15.730484270000003,0.0060039926,-0.005805051,14.98266,-6.864111498169937e-06,-2.770871e-05,-0.002406085,1816364.5999999999,-4.009865
1.06,47.820915,13.040555,423.9848,15.880318780000003,0.003919944,-0.0048312265,14.983451,-6.164459922505001e-05,-0.0027241465,-0.0027805362,1816365.2,-1.6919803
1.07,47.821823,13.040518,423.9844,16.030158720000003,0.0042393543,-0.0073327944,14.983994,-4.425087107983406e-06,-0.0004250249,-0.0021542367,1816365.5999999999,-3.2073222
1.08,47.821968,13.040512,423.98273,16.17996125,0.0033775577,-0.0065049287,14.980253,2.8013937274920587e-05,-0.001983177,-0.004099639,1816367.27,-2.4282969999999997
1.09,47.8199,13.040538,423.98227,16.32978899,0.004964968,-0.0073451437,14.982774,1.9303135888464965e-06,-0.0011753011,-0.0029019471,1816367.73,-0.9809285
1.1,47.818184,13.040599,423.98672,16.47960733,0.00796942,-0.0028275307,14.981834,-2.463414633647623e-05,-0.00072212145,-1.555495e-05,1816363.28,-1.6539674
1.11,47.818073,13.040555,423.9868,16.62942611,0.006432675,-0.0035755597,14.981878,-2.9031358876846677e-05,0.0007523168,0.00043196604,1816363.1999999997,-1.5296806
1.12,47.822186,13.0405,423.9844,16.77924231,0.0040158676,-0.005840851,14.98162,-3.142857141821712e-05,-0.0017054249,-0.0030790474,1816365.5999999999,-3.4652743
1.13,47.819893,13.040547,423.98587,16.929040559999997,0.0075783106,-0.0051612984,14.979825,-5.560975609681358e-06,-0.0019002296,-0.0039696936,1816364.13,-0.57344325
1.14,47.819176,13.040568,423.98477,17.078871049999997,0.0049215443,-0.005910229,14.983049,-3.712195120245876e-05,-0.000117516145,-0.0017439779,1816365.23,-1.8597208
1.15,47.81941,13.0405,423.98526,17.228667949999995,0.0045528226,-0.006497072,14.97969,-3.6745644582762425e-05,-0.0002848683,-0.004173385,1816364.74,-1.6432498
1.16,47.81802,13.040563,423.98553,17.378503339999995,0.00554125,-0.0059961937,14.983539,-4.1379790917171415e-05,0.0013410309,-0.000684008,1816364.47,0.8606538
1.17,47.820267,13.040573,423.98422,17.528339799999994,0.005534297,-0.006238209,14.983646,2.2418118463148817e-05,-0.00044377707,-0.0022179224,1816365.7799999998,-4.7603585
1.18,47.819366,13.040565,423.9822,17.678165944999993,0.0047047995,-0.0062511824,14.9826145,-1.2285714285094012e-05,-0.00025822036,0.00010255538,1816367.8,1.4291173
1.19,47.82012,13.040559,423.98474,17.82799187499999,0.005951762,-0.005988667,14.982593,-1.9874564457323635e-05,-0.0011615083,-0.00216458,1816365.26,-3.7485547
1.2,47.81842,13.040612,423.9857,17.977829894999992,0.0055716094,-0.004988475,14.983802,4.132404181145821e-06,-0.00021912437,-0.0002648756,1816364.3,-1.7973147
1.21,47.81988,13.040563,423.98392,18.127655454999992,0.004044934,-0.006889686,14.982556,-1.318466898880877e-05,-0.0017110612,-0.00071884133,1816366.0799999998,0.55550784
1.22,47.818935,13.040543,423.98215,18.277464574999993,0.0065650204,-0.0039254986,14.980912,1.6425087106501804e-05,0.002670467,-0.0016154684,1816367.8499999999,-1.1440086999999999
1.23,47.81798,13.040549,423.98294,18.42728990499999,0.005748472,-0.004280396,14.982533,-6.0585365779549326e-05,0.0029904908,-0.0009819567,1816367.06,-2.9406901000000003
1.24,47.815693,13.040592,423.98685,18.577117289999993,0.0069644433,-0.0060244594,14.9827385,-1.4062717769095355e-05,0.00023468211,-5.9168786e-05,1816363.15,3.483505
1.25,47.8206,13.040555,423.98624,18.726932639999994,0.0052577136,-0.006733317,14.981535,-1.6815331008877667e-05,-0.0020218175,-0.0029285718,1816363.76,-2.145039
1.26,47.8203,13.040513,423.9826,18.876742089999993,0.0046327664,-0.0071589854,14.980945,8.989547038086702e-06,-0.0014488976,-0.0037698224,1816367.4,-0.27673877999999996
1.27,47.821106,13.040584,423.98248,19.026576549999994,0.003519982,-0.0074969903,14.983446,-1.1804878048255619e-05,-0.0016232561,-0.0025700647,1816367.5199999998,-1.6506463
1.28,47.818306,13.040583,423.98825,19.176368849999996,0.005564227,-0.0056932084,14.97923,-5.671080133294894e-05,-0.0024267882,-0.00014808029,1816361.75,0.44399872
1.29,47.818382,13.0405655,423.98053,19.326198309999995,0.00492619,-0.006966928,14.982946,3.5121951219424567e-06,-0.0013650171,-0.002859369,1816369.47,-0.5724989
1.3,47.82103,13.040517,423.98465,19.476013509999994,0.0040898845,-0.006936984,14.98152,-2.915679441685e-05,-0.002410911,-0.002885636,1816365.35,-2.5018137
1.31,47.82046,13.040582,423.9799,19.625852669999993,0.002179685,-0.008850524,14.983916,3.4599303122111625e-05,-0.0007346645,-0.0037812237,1816370.0999999999,-2.3115166
1.32,47.817142,13.040601,423.98752,19.775625319999993,0.00705842,-0.0018250663,14.977265,-5.9832752541818736e-05,-0.0006631026,-0.00028447993,1816362.4799999997,1.6422067
1.33,47.822712,13.04052,423.9843,19.925454649999992,0.0033097165,-0.00566688,14.982933,-8.880139349480571e-05,0.0008231886,-0.0017561615,1816365.6999999997,-6.210128
1.34,47.81911,13.04056,423.9856,20.07526301999999,0.0065721767,-0.005016193,14.980837,-2.7818815323830816e-05,-0.0010116752,-0.0026105326,1816364.4,-1.6609188
1.35,47.819546,13.040547,423.98462,20.22507789999999,0.0064177513,-0.0037792083,14.981488,-4.138675955825687e-05,-0.00044028927,0.0005331617,1816365.38,-1.841601
1.36,47.819508,13.04058,423.9865,20.374896479999993,0.0055426853,-0.0061816834,14.981858,-1.9818815328408038e-05,-0.0028933194,-0.0030121077,1816363.5,-0.7669404000000001
1.37,47.821735,13.040535,423.9829,20.524709389999995,0.00470376,-0.0049484093,14.981291,7.177700348530456e-07,-0.0026589613,-0.0015860368,1816367.0999999999,-1.4470052
1.38,47.817238,13.04058,423.98502,20.674547159999992,0.0060919942,-0.005419938,14.983777,1.131010452913955e-05,0.0011800788,-0.0015304312,1816364.9799999997,-3.2979678
1.39,47.8234,13.040603,423.98474,20.824353149999993,0.0073794974,-0.0059669614,14.980599,-1.5268292681734253e-05,-0.005619336,-0.006279351,1816365.26,-3.9559749999999996
1.4,47.818604,13.040581,423.98602,20.974160649999995,0.0070672976,-0.0039048102,14.98075,-1.8334494771441588e-05,-0.0015735235,-0.0016169418,1816363.9799999997,-0.6500371
1.41,47.82091,13.040549,423.9866,21.123976799999994,0.0071785795,-0.004789047,14.981615,-3.6425087091919374e-05,0.00028660055,-0.0023409855,1816363.4,-3.9068293
1.42,47.817963,13.040569,423.9838,21.273817309999995,0.005844048,-0.0050565936,14.984051,-3.4578397198765245e-05,0.00047292653,-0.0011075661,1816366.2,-2.8229337
1.43,47.820484,13.0405445,423.9834,21.423650799999994,0.0045971787,-0.0058412533,14.983349,-5.4655052210404915e-05,-0.00013343152,-0.0018097702,1816366.5999999999,-3.7909895
1.44,47.818466,13.040615,423.9833,21.573504889999995,0.004703434,-0.0060559623,14.985409,2.833449476593824e-05,0.00038862787,-0.0014669262,1816366.7,-3.3101477
1.45,47.818596,13.040577,423.9827,21.723317089999995,0.004975062,-0.0062577613,14.98122,-1.9135888499419755e-05,-0.0002981769,-0.003768105,1816367.2999999998,-1.9213501000000002
1.46,47.81578,13.040636,423.98715,21.873133919999994,0.0077396515,-0.0032026097,14.981683,-1.1846689893288809e-07,0.0015232973,0.0011769682,1816362.85,2.824814
1.47,47.82068,13.040538,423.98456,22.022942179999994,0.0040942077,-0.0059075,14.980826,-6.188153310009138e-06,-0.002980318,-0.0021337308,1816365.44,-1.4188718
1.48,47.81786,13.040566,423.9855,22.172780009999993,0.0069234455,-0.0055147186,14.983783,5.630662020851121e-06,-0.0012046676,-0.004922306,1816364.5,-0.8668490000000001
1.49,47.81957,13.040579,423.98453,22.322601769999995,0.005466588,-0.0062625613,14.982176,-4.062717769975046e-06,-0.00082523003,-0.0034962874,1816365.47,-2.6338026
1.5,47.818394,13.040587,423.98392,22.472426289999994,0.005483552,-0.0054540727,14.982452,-2.452961671984089e-05,2.9604882e-05,-0.0023440924,1816366.0799999998,-2.8079226999999998
1.51,47.821312,13.040514,423.98337,22.622250889999993,0.003419418,-0.007900555,14.98246,-2.7177700341771396e-05,-0.0021722633,-0.0037490465,1816366.63,-3.4696888
1.52,47.820362,13.040541,423.98367,22.772086149999993,0.0048477184,-0.007406004,14.983526,-1.4933797908264423e-05,-0.0020498838,-0.0024092104,1816366.3299999998,-2.8302856
1.53,47.818264,13.040553,423.9853,22.921910854999993,0.0063091377,-0.0055816397,14.9824705,-1.7101045294501447e-05,0.0011230968,-0.0022340752,1816364.7,-3.662128
1.54,47.820293,13.040566,423.98517,23.071718194999992,0.0062794294,-0.0036886241,14.980734,-9.790940766235886e-06,-0.00061567686,-0.0020588543,1816364.83,-2.3363400000000003
1.55,47.819153,13.040526,423.98355,23.221529344999993,0.0047313236,-0.00688836,14.981115,-3.589547036786356e-05,0.0001987461,-0.0034265053,1816366.45,-3.0727125999999996
1.56,47.818375,13.040578,423.98563,23.371350144999994,0.0053840736,-0.005551139,14.98208,-4.6432055715783e-05,-0.002062589,-0.0027290974,1816364.3699999999,-1.3899337999999999
1.57,47.820385,13.0405445,423.98492,23.521179524999994,0.005087523,-0.008484531,14.982938,-3.1916376306343375e-06,-0.002393093,-0.0033264067,1816365.08,-1.8586759
1.58,47.820503,13.040583,423.98407,23.670985534999993,0.0042082043,-0.0073196273,14.980601,2.4013937277591144e-05,-0.0033008568,-0.0045035463,1816365.93,1.302924
1.59,47.819626,13.040564,423.98386,23.820785034999993,0.0053768707,-0.005904997,14.97995,4.560278742485044e-05,-0.0026953649,-0.0034776814,1816366.14,0.13111904
1.6,47.817825,13.0405445,423.98633,23.970587744999992,0.0065089716,-0.006183369,14.980271,-2.0613240415205827e-05,-0.00022775121,-0.0035569817,1816363.67,-0.8623544
1.61,47.819477,13.040567,423.9829,24.120421514999993,0.004875142,-0.006794246,14.983377,-2.206271776644673e-05,-0.0017878339,-0.002294818,1816367.0999999999,-2.6660096
1.62,47.818974,13.040559,423.98657,24.270216294999994,0.005653003,-0.0032129511,14.979478,-7.657839706285689e-05,-0.00010079704,-0.0011589844,1816363.43,-0.5623027700000001
1.63,47.820732,13.040522,423.98135,24.42004752499999,0.0028788084,-0.008308327,14.983123,-6.605574903283718e-05,-0.0021458436,-0.0051209033,1816368.65,-2.7592592000000002
1.64,47.818882,13.040624,423.98547,24.56984814999999,0.0060466593,-0.0075332224,14.9800625,5.612543548112629e-05,-0.0028475355,-0.0019029751,1816364.5299999998,1.7039309999999999
1.65,47.81663,13.0406,423.9851,24.719671239999993,0.006796603,-0.0052026697,14.982309,-4.078745642338793e-05,-5.527772e-05,-0.0009070914,1816364.9000000001,-1.6472824000000001
1.66,47.818462,13.040587,423.98453,24.869472279999993,0.0062138373,-0.0055572577,14.980104,2.0822299648552703e-05,-0.0016387682,-0.003064096,1816365.47,-2.2091605000000003
1.67,47.819366,13.040572,423.9893,25.019227349999994,0.009597905,-0.000929825,14.975507,4.304529614067799e-05,0.0016696155,-0.0030219313,1816360.7,3.3521084
1.68,47.816723,13.0406275,423.98904,25.169021219999994,0.0090023,-0.0024286658,14.979387,-3.9979094055388984e-05,0.0019149547,0.0014906432,1816360.96,2.8588744
1.69,47.820236,13.040563,423.98367,25.318842689999993,0.005008785,-0.007059373,14.982147,-3.588850174171212e-06,-0.001421744,-0.004231386,1816366.3299999998,-3.0276664
1.7,47.818512,13.040619,423.98672,25.468681829999994,0.005760202,-0.0065731574,14.983914,1.789547038134105e-05,-9.757746e-05,-0.0011929218,1816363.28,-1.6672703999999998
1.71,47.81522,13.040656,423.98553,25.618476979999993,0.008526247,-0.00042687915,14.979515,-2.7686411142765516e-05,0.0004455028,0.0018668417,1816364.47,1.1343956
1.72,47.819546,13.040585,423.98373,25.768295514999995,0.0045591984,-0.006387597,14.9818535,1.8334494771441588e-05,-0.0021126624,-0.0030721817,1816366.27,-1.8363688
1.73,47.816624,13.040606,423.98825,25.918115694999994,0.0079941405,-0.0044015553,14.982018,2.6202090592272884e-06,0.0005608825,-0.0016852077,1816361.75,0.9402520999999999
1.74,47.820145,13.040585,423.98572,26.067929764999995,0.006296714,-0.005839251,14.981407,4.6689895471335643e-07,-0.0012335442,-0.0025922693,1816364.2799999998,-2.5345291999999997
1.75,47.81923,13.04055,423.98413,26.217767394999996,0.0043644123,-0.0064087026,14.983763,-3.1358885017369513e-06,1.9528903e-05,-0.0025748275,1816365.8699999999,-4.50561
1.76,47.818165,13.040612,423.98517,26.367596274999997,0.0068501886,-0.0047738533,14.982888,-2.960278744776741e-05,-0.00054726284,-0.00056064315,1816364.83,-3.1807981
1.77,47.821724,13.040552,423.98306,26.517405455,0.0039021922,-0.008857951,14.980918,9.198606271506023e-06,-0.003754776,-0.0050475355,1816366.94,-1.8280391
1.78,47.817894,13.0406475,423.98553,26.667212635,0.006516381,-0.0054363236,14.980718,3.482926827860289e-05,-0.0031729806,-0.0014770534,1816364.47,-0.45943446
1.79,47.81779,13.040665,423.98645,26.817039365,0.007710868,-0.0047112573,14.982673,-1.5463414632930018e-05,-0.0004767524,0.0014987271,1816363.55,0.7693283
1.8,47.816498,13.040605,423.98557,26.966885065,0.00691591,-0.0046249777,14.98457,-5.3972125383132544e-05,5.181227e-05,-0.0013510976,1816364.43,-0.5637016
1.81,47.81759,13.040552,423.98462,27.116658275,0.0083715785,-0.0045781936,14.977321,0.00010522648044782727,0.00068344455,-0.0031753294,1816365.38,3.960903
1.82,47.818684,13.040612,423.98697,27.266462335,0.008792421,-0.0050404593,14.980406,4.315679439826675e-05,-0.0023815408,-0.003033081,1816363.03,0.7000305
1.83,47.81695,13.040597,423.98816,27.416251605,0.007622062,-0.0038561672,14.978927,-4.020905923312174e-06,-0.001346007,0.001542178,1816361.84,3.1879079
1.84,47.818863,13.040583,423.98486,27.566065955,0.0058139237,-0.005531566,14.981435,-2.2118466895357077e-05,-0.00084275194,-0.0019279774,1816365.14,-1.8339007999999999
1.85,47.818516,13.040658,423.9837,27.715912664999998,0.005266753,-0.0049814247,14.984671,2.7491289191672198e-05,0.0013410412,-0.0010177009,1816366.2999999998,-4.2457953
1.86,47.81795,13.040657,423.98383,27.865750385,0.004908162,-0.0063095335,14.983772,3.7303135871215305e-05,-0.0008996371,-0.0016876534,1816366.1699999997,-1.0912884
1.87,47.815567,13.040595,423.98645,28.015563604999997,0.007947383,-0.0050161686,14.981322,-1.5163763065020344e-05,0.0009714756,-0.0015047174,1816363.55,0.45636483
1.88,47.818398,13.040624,423.9871,28.165417534999992,0.0066273278,-0.005446328,14.985393,-1.462717769929369e-05,-0.001480503,-0.00034262985,1816362.9,-1.0824688
1.89,47.82091,13.040548,423.98364,28.315239234999993,0.0036750128,-0.009261342,14.98217,-1.2202090591700214e-05,-0.0029166974,-0.0047473162,1816366.3599999999,-1.8874425
1.9,47.817265,13.040593,423.9892,28.46505696499999,0.007517107,-0.005933171,14.981773,9.616724738556503e-07,-0.001535587,-0.0014263745,1816360.7999999998,-0.17788261
1.91,47.820568,13.040584,423.98416,28.61485263499999,0.003974474,-0.005391756,14.979567,-2.594425086527462e-05,-0.0041932147,-0.0032734051,1816365.8399999999,-1.9282196
1.92,47.81764,13.040628,423.98834,28.764673229999993,0.00781526,-0.002970392,14.9820595,-2.276655051871186e-05,0.00055830367,0.0022064783,1816361.66,-1.1730715999999999
1.93,47.815914,13.040616,423.9855,28.914490734999994,0.007887153,-0.005126154,14.9817505,4.7108013902414746e-05,-0.000253791,-0.002550954,1816364.5,0.27144141
1.94,47.81693,13.040586,423.98898,29.064271194999993,0.0074885907,-0.005335467,14.978046,-1.680139372664722e-05,-0.0010182839,-0.002445612,1816361.0199999998,1.4908677
1.95,47.816135,13.0406275,423.98654,29.214090454999994,0.0076378267,-0.0046758726,14.981926,-3.7142857142790404e-06,-0.0002804082,-0.0011811648,1816363.46,-1.588935
1.96,47.819965,13.040638,423.98483,29.363940844999995,0.004267417,-0.0040469654,14.985039,-5.981881525963423e-05,-0.002397159,-0.004359409,1816365.17,-0.73613226
1.97,47.81826,13.040557,423.98218,29.513788204999994,0.004183986,-0.0060288757,14.984736,-7.096167235476174e-05,0.00042359065,-0.0021902416,1816367.8199999998,-2.954116
1.98,47.813908,13.040639,423.9913,29.663571194999992,0.012289695,-0.00067432225,14.978299,7.651567929318943e-05,0.00043211505,0.001571483,1816358.6999999997,3.8906978
1.99,47.813896,13.040664,423.98688,29.81339013499999,0.008031255,-0.004439486,14.981894,-1.9888501739552514e-05,0.0019451194,0.00010078773,1816363.1199999999,-0.64897165
2.0,47.814823,13.040624,423.98752,29.963215094999992,0.008857426,-0.0025843363,14.982496,1.450871080034633e-05,0.0011628205,0.0016785469,1816362.4799999997,-2.2238903000000003
2.01,47.817467,13.040586,423.98532,30.113031504999988,0.008276507,-0.0018916,14.981641,-3.627874562871109e-05,0.0016598133,0.0011255443,1816364.68,-1.5118215
2.02,47.81621,13.040653,423.986,30.262854114999993,0.007903589,-0.00421408,14.982261,-2.2390243898694034e-05,-0.00043812394,0.00028400496,1816364.0,-0.9134597999999999
2.03,47.816586,13.040637,423.98508,30.41267384499999,0.007816417,-0.003663918,14.981973,1.9790940766468654e-06,-0.00070347544,-0.000683628,1816364.92,-0.22658147
2.04,47.81859,13.040598,423.9836,30.562512944999995,0.004600412,-0.006440468,14.98391,-3.929616722713537e-05,-0.0010973699,-0.0024388265,1816366.4,-2.2827946
2.05,47.817436,13.040628,423.98648,30.71233373499999,0.0063265394,-0.0058635417,14.982079,-7.498257839584049e-06,0.00088733993,-0.0024333112,1816363.5199999998,-0.9868518000000001
2.06,47.818645,13.040613,423.98264,30.862150124999996,0.005788331,-0.0058571883,14.981639,-1.28013937274872e-05,-9.856373e-05,-0.0023585558,1816367.3599999999,-0.07182732
2.07,47.81769,13.040645,423.98535,31.011966274999992,0.0058102505,-0.0059504732,14.981615,9.233449477108842e-06,-0.00058217533,-0.0018320642,1816364.65,-0.22485107
2.08,47.81509,13.040626,423.98758,31.161762654999997,0.008891187,-0.0020390823,14.979638,-2.66689895407236e-05,0.00094904937,-0.0008485168,1816362.42,2.500398
2.09,47.816574,13.040629,423.98587,31.311576294999995,0.007110444,-0.005407829,14.981364,-4.074564457675425e-05,-0.0004767822,-0.00061265007,1816364.13,-0.67927316
2.1,47.819042,13.04061,423.98383,31.461397355,0.0046899533,-0.0068353713,14.982106,-5.853658536514767e-06,-0.0019069351,-0.0024822317,1816366.1699999997,-1.1402201
2.11,47.813065,13.04071,423.9897,31.611217734999997,0.0082629435,-0.00367143,14.982038,-1.8989547036031657e-05,0.0015060911,0.001403233,1816360.2999999998,2.78732
2.12,47.81822,13.040606,423.98456,31.761030565,0.0063157324,-0.0045524444,14.981283,-1.0174216027931517e-06,-0.0014928598,-0.0012424774,1816365.44,-0.32201223
2.13,47.81582,13.040606,423.98734,31.910828494999997,0.008053382,-0.005753685,14.979793,-6.132404181149803e-07,9.6526e-05,-0.001942113,1816362.6599999997,-0.17507933
2.14,47.818153,13.040607,423.98593,32.060652715,0.0066508884,-0.005608646,14.982422,-5.951219512152092e-06,-0.0011713263,-0.001159098,1816364.0699999998,-2.2582076
2.15,47.81456,13.040593,423.98486,32.210449255,0.010082025,-0.0007918291,14.979654,-1.505226480837534e-06,0.0032287063,-0.00066631846,1816365.14,1.0829587
2.16,47.81854,13.04064,423.9818,32.360254265,0.0059084035,-0.0064154863,14.980501,3.87247386565931e-05,-0.0008156523,-0.0010188855,1816368.2,0.10737032
2.17,47.81569,13.040665,423.9849,32.510075225,0.007306084,-0.0048498753,14.982096,-1.72055749112088e-05,0.0002463227,-0.0002104789,1816365.1,-1.4709253
2.18,47.81847,13.040656,423.9851,32.659928750000006,0.006788252,-0.0073103625,14.9853525,-3.021602786537347e-05,-0.0017653741,5.586818e-05,1816364.9000000001,-1.5848596000000001
2.19,47.814064,13.040654,423.98615,32.80974038,0.007839939,-0.005322363,14.981163,-3.317073170702898e-06,0.00015302002,0.00048778765,1816363.8499999999,4.9226824
2.2,47.818092,13.04064,423.9845,32.95955491,0.0059200926,-0.005708961,14.981453,4.167247386751e-06,-0.0006702719,-0.0025898684,1816365.5,-0.9926148
2.21,47.81468,13.040616,423.98685,33.10937139,0.007770217,-0.0035324022,14.981648,-2.4160278740947515e-05,0.00054037943,0.001737644,1816363.15,0.16252509999999998
2.22,47.815937,13.040633,423.98544,33.25919065,0.0065825125,-0.004344905,14.981926,-1.4041811845767705e-05,-0.0006270977,-0.001739813,1816364.56,0.49134160000000004
2.23,47.817318,13.040619,423.98657,33.40902912,0.006482308,-0.005454898,14.983847,2.6620209059301637e-06,0.00046382844,-0.0006658528,1816363.43,-2.4114735
2.24,47.819466,13.040604,423.983,33.55886644,0.0051268637,-0.005052611,14.983732,-2.9240418110105814e-05,0.0022374894,-0.00024265237,1816367.0,-4.9486384
2.25,47.815804,13.040645,423.98724,33.70867705,0.0072234273,-0.004948998,14.981061,-2.2634146337612814e-05,0.00032697432,-0.00049177185,1816362.76,1.6743801999999999
2.26,47.817455,13.040606,423.98642,33.85851740499999,0.0066939527,-0.005893523,14.9840355,1.7602787454629923e-05,-9.034481e-05,-0.0013510883,1816363.5799999998,-2.6452653
2.27,47.81757,13.040629,423.98477,34.008348725,0.006212443,-0.005058937,14.983132,-4.482229962155782e-05,0.0008793436,-0.0018025581,1816365.23,-3.2807738
2.28,47.813366,13.04067,423.98944,34.158168184999994,0.01021577,-0.0015758257,14.981946,6.968641114863437e-06,0.0012666779,0.002036063,1816360.5599999998,-1.8641446000000002
2.29,47.81825,13.040664,423.9863,34.307963654999995,0.0060177306,-0.0042876713,14.979547,-1.2822299650855156e-05,-0.003686456,-0.0023057833,1816363.7,0.77486597
2.3,47.81462,13.040701,423.99002,34.45778064499999,0.009104835,-0.004242709,14.981699,4.6898954703520714e-06,-0.0002523018,-0.0007615909,1816359.98,2.9963553000000003
2.31,47.82007,13.040655,423.98694,34.607620634999996,0.006451023,-0.005358845,14.983999,3.547038326035498e-05,-0.0029789936,-0.0030814577,1816363.0599999998,-0.96713006
2.32,47.814083,13.040679,423.98825,34.757436535,0.009177645,-0.0013400894,14.98159,-1.9331010450549797e-05,1.7147511e-05,0.0025530858,1816361.75,-1.2673158
2.33,47.817085,13.040652,423.9858,34.907258375,0.006782203,-0.0052545965,14.982184,-3.092682925842529e-05,-0.001619773,-0.001283519,1816364.2,-1.1239126
2.34,47.81687,13.040625,423.98514,35.057072285,0.0063965553,-0.005751729,14.981391,-1.7804878046905807e-05,-0.0005658753,-0.0016491096,1816364.8599999999,-1.2250636
2.35,47.81644,13.040643,423.98715,35.20687847,0.007942398,-0.004188249,14.9806185,-4.9846689854182795e-05,0.00027498137,-0.00046027265,1816362.85,1.8282533
2.36,47.817474,13.040615,423.98367,35.35669849999999,0.005192426,-0.0056453403,14.982003,-4.45993031063326e-05,-0.001976516,-0.0017621368,1816366.3299999998,-0.58462657
2.37,47.81683,13.040606,423.98718,35.50649496,0.0069123134,-0.0046905577,14.979646,-3.7282229947873e-05,-0.00021712016,-0.00077073276,1816362.8199999998,-0.10855496
2.38,47.815434,13.040699,423.98727,35.656304399999996,0.010148769,-0.0034218188,14.980944,3.5770034827954734e-05,-0.001767559,-0.00019532442,1816362.7299999997,0.27157553
2.39,47.817963,13.040645,423.98636,35.80612749,0.0066378824,-0.0062906574,14.982309,-1.5331010453062478e-06,-0.000943264,-0.0017438885,1816363.6400000001,-1.0824334
2.4,47.81828,13.040588,423.98502,35.955953879999996,0.005686256,-0.0058232173,14.982639,-2.6557491282967067e-05,0.0007606922,-0.0016044732,1816364.9799999997,-3.1652562
2.41,47.81749,13.040662,423.9858,36.105777599999996,0.0059393644,-0.0057927687,14.982372,-1.9331010450549797e-05,-0.00059196446,-0.0023644846,1816364.2,-0.06583892
2.42,47.814655,13.040657,423.98633,36.255608509999995,0.0070091803,-0.0052080955,14.983091,-4.91289198210875e-05,0.0013594292,-2.0461157e-05,1816363.67,0.8183252
2.43,47.817326,13.040655,423.98413,36.40543553,0.006242172,-0.0046041496,14.982702,-3.099651566949082e-05,0.00048436876,0.0006392952,1816365.8699999999,-0.13310462
2.44,47.815395,13.040619,423.9858,36.555279299999995,0.0062188487,-0.004940953,14.984377,-2.0118466896228886e-05,0.0016314853,0.0003974121,1816364.2,-1.6788561000000002
2.45,47.818256,13.040668,423.9852,36.70510298,0.005411003,-0.005696913,14.982368,-1.1421602786960647e-05,0.0009374097,-0.00078150444,1816364.7999999998,-0.05818717
2.46,47.817093,13.040684,423.98602,36.85491346,0.007848631,-0.004429981,14.981048,9.783972125139165e-06,-0.0028006546,-9.8185614e-05,1816363.9799999997,0.78973547
2.47,47.81288,13.040648,423.98468,37.00471095,0.0049711587,-0.0031377133,14.979749,-5.268292678053392e-05,0.00046778657,0.0020873947,1816365.3199999998,4.0533766
2.48,47.81685,13.040671,423.9857,37.15453649,0.00849304,-0.0031086635,14.982554,-1.2787456445294703e-05,0.00052954536,0.0007994026,1816364.3,-2.4210103
2.49,47.8171,13.040674,423.9846,37.30436865,0.0057903957,-0.0046452004,14.983216,-3.1916376306343375e-06,0.000992367,0.00033167377,1816365.4,-0.36954879999999996
2.5,47.815453,13.040622,423.98535,37.454183359999995,0.0069381194,-0.0058771614,14.981471,-2.396515678981866e-05,0.0010737451,-0.0011105072,1816364.65,-0.96715614
2.51,47.81545,13.040636,423.986,37.60399258999999,0.0066005774,-0.0052650124,14.980923,-8.801393727996757e-06,-0.00048246328,-0.0008572005,1816364.0,0.5926844
2.52,47.814156,13.040684,423.9875,37.753813519999994,0.007539657,-0.00502133,14.982093,-1.0048780487487292e-05,-0.00060143135,0.0020100763,1816362.5,5.437062
2.53,47.815693,13.040623,423.98593,37.90365252999999,0.0069317995,-0.0049704537,14.983901,-1.6564459928768162e-05,0.0005087182,0.0011586379,1816364.0699999998,-1.9620395999999998
2.54,47.815372,13.040662,423.9854,38.05347793999999,0.0073968675,-0.0041076466,14.982541,-4.8766550483980414e-05,0.0002511004,-0.0007507652,1816364.5999999999,0.6655846
2.55,47.815277,13.040676,423.98706,38.20327469999999,0.0074073393,-0.0041756555,14.979676,-3.453658535211201e-05,-0.002317883,0.0008206032,1816362.94,1.284807
2.56,47.814003,13.040684,423.98544,38.35307927999999,0.008367172,-0.0037316978,14.980458,4.4627177670745905e-05,0.00051183347,-0.0018632002,1816364.56,2.549925
2.57,47.81663,13.04072,423.98346,38.50292017999998,0.006831832,-0.0045084488,14.98409,5.5958188152860515e-06,0.0006031962,0.0006304886,1816366.54,-3.0240677
2.58,47.815834,13.040718,423.98837,38.652739189999984,0.0070637977,-0.0040446986,14.981901,-3.1010452961711236e-06,-0.001737278,0.00092833117,1816361.63,1.1214427999999999
2.59,47.81535,13.040664,423.9839,38.802562649999985,0.0074031753,-0.005144866,14.982346,-4.004878046640974e-05,-0.00040976796,-0.00045808777,1816366.0999999999,0.25974773
2.6,47.815018,13.04069,423.98737,38.952425459999986,0.006290715,-0.0034452602,14.986281,-0.00013763066115189045,0.002525839,0.004076747,1816362.63,2.3064204
2.61,47.81506,13.040706,423.98404,39.102245559999986,0.006276913,-0.005983919,14.98201,8.146341463225594e-06,0.0015795771,0.00043858401,1816365.96,4.0059667
2.62,47.814804,13.040715,423.98785,39.25206988999999,0.0094424095,-0.0030261874,14.982433,3.519163763039759e-06,-0.0012016445,0.0017865552,1816362.15,0.2741441
2.63,47.81809,13.040645,423.98465,39.40188726999998,0.006329054,-0.0052494835,14.981738,-3.951219510137355e-05,-0.001594523,-0.001018608,1816365.35,-1.0698158
2.64,47.816463,13.040656,423.98706,39.551671689999985,0.0065693464,-0.0029322486,14.978442,1.0662020905936543e-06,-0.0013632048,-0.0002890341,1816362.94,3.7178323
2.65,47.81444,13.040701,423.98303,39.70150240999998,0.007027806,-0.0067765974,14.983072,-2.409756097090947e-05,-0.0010362379,-0.0025531072,1816366.97,-0.060934573
2.66,47.81699,13.040721,423.98618,39.851333619999984,0.0059994115,-0.0055383034,14.983121,8.919860627233771e-07,-0.0019729212,-0.00032313168,1816363.82,0.16443618
2.67,47.81845,13.040694,423.97992,40.00115624999998,0.006097785,-0.005236434,14.982263,-1.4139372821349447e-05,-0.0004661521,0.00424706,1816370.0799999998,0.35355613
2.68,47.81545,13.040696,423.98694,40.150983809999985,0.0070918594,-0.004373612,14.982756,-3.514982576952216e-05,0.0002190359,0.00029092655,1816363.0599999998,0.08696504
2.69,47.815933,13.040609,423.98624,40.300828729999985,0.006261212,-0.0042148232,14.984492,-1.1916376306035822e-05,0.0016282508,-0.0002776254,1816363.76,-3.5878439
2.7,47.8151,13.040717,423.9863,40.45066139999999,0.007489235,-0.0034774803,14.983267,4.6689895471335643e-07,0.0007949304,0.0014324337,1816363.7,0.17133541
2.71,47.814396,13.040708,423.98813,40.60047320999998,0.009853795,-0.0016549528,14.981181,-3.334494772282094e-05,-0.00048107933,0.0050028097,1816361.8699999999,1.8692901
2.72,47.81281,13.040747,423.98877,40.750321779999986,0.008610542,-0.0040893275,14.984857,-5.544250865400409e-05,0.00019101985,0.0041004205,1816361.23,7.38859
2.73,47.817028,13.040594,423.98605,40.900140839999985,0.0055490024,-0.0052751508,14.981906,-4.529616724719422e-06,0.0018093018,-0.0003963746,1816363.95,-3.180202
2.74,47.8145,13.040668,423.98535,41.04997119999999,0.0066229803,-0.0045478046,14.983036,-6.095470375725803e-05,0.00024907105,0.00049574673,1816364.65,0.6919913
2.75,47.81487,13.040708,423.98944,41.19976900999998,0.009190168,-0.0031708237,14.979781,-2.7916376299356162e-05,0.00027009007,0.002157108,1816360.5599999998,3.1494163
2.76,47.815342,13.040684,423.98364,41.34961094999998,0.006303126,-0.005599363,14.984194,-5.995121944036629e-05,-0.0009893198,-0.00017115846,1816366.3599999999,0.6876382999999999
2.77,47.81347,13.040726,423.9895,41.49944859999998,0.0080611585,-0.0050964896,14.983765,-8.940766550290068e-06,0.0011896873,0.0019612685,1816360.4999999998,0.5982425
2.78,47.814426,13.040658,423.98474,41.64928105999998,0.0066903755,-0.004948521,14.983246,-5.784668983094853e-05,-0.0009735003,-0.0010384545,1816365.26,-1.950046
2.79,47.817017,13.040686,423.98618,41.79912066999998,0.0066421535,-0.0064325947,14.983961,-7.268292682788584e-06,0.00046149548,-0.0014080424,1816363.82,-1.4740545
2.8,47.81378,13.040705,423.9886,41.94894145999998,0.00822787,-0.0030700043,14.982079,-1.6829268291108115e-05,-0.00032222364,0.00074361823,1816361.3999999997,-0.09836443
2.81,47.81601,13.04072,423.98526,42.09875538999998,0.0067566587,-0.005581394,14.981393,-1.306620208985668e-05,-0.001829965,-0.0007673688,1816364.74,0.6596297
2.82,47.815758,13.040683,423.98624,42.248579229999976,0.0076749753,-0.0050969534,14.982384,-2.6857142850693663e-05,-0.00060743093,0.0018289136,1816363.76,1.6551269
2.83,47.81633,13.0407095,423.98563,42.39840588999998,0.00591038,-0.004811233,14.982666,-3.693379789265151e-05,-0.0006825691,-0.0010886658,1816364.3699999999,1.109248
2.84,47.81435,13.040734,423.98874,42.54822941999998,0.008651955,-0.0035961643,14.982353,1.0592334494962737e-06,0.0011762083,0.00063191354,1816361.26,-0.21654181
2.85,47.81521,13.040694,423.9874,42.69806543999998,0.007123326,-0.004290145,14.983602,-2.5010452956454028e-05,0.0010106321,0.00030608475,1816362.5999999999,0.97372197
2.86,47.818115,13.040627,423.98267,42.847894269999976,0.0034684641,-0.007667329,14.982883,-8.408362349525147e-05,-0.001385605,-0.0018527061,1816367.33,0.5804766
2.87,47.816547,13.040678,423.98688,42.99770833999998,0.007470646,-0.0056140516,14.981407,-1.3672473866726353e-05,-0.0018722471,-0.0016321745,1816363.1199999999,0.6721541000000001
2.88,47.816463,13.040723,423.9846,43.14754026999998,0.0074523864,-0.004026154,14.983193,-2.6759581875162666e-05,-0.0012908839,0.00028112158,1816365.4,-1.9628312
2.89,47.814304,13.040728,423.9848,43.29735197999998,0.009861389,-0.00076476857,14.981171,-4.747038323957967e-05,0.0051848507,0.0024277018,1816365.2,0.8272454
2.9,47.81552,13.040686,423.98544,43.44716168999998,0.007227228,-0.004559474,14.980971,-2.3114982574269374e-05,0.00019509625,-0.0009597372,1816364.56,0.13826229
2.91,47.814915,13.040693,423.9865,43.59699769999998,0.007476016,-0.0046116114,14.983601,-1.1010452961196928e-05,0.000117459334,0.001694493,1816363.5,-0.14059059999999998
2.92,47.81603,13.0406475,423.98663,43.746828649999976,0.006110266,-0.005238645,14.983095,-1.7665505224645368e-05,0.00019720662,-0.0008202065,1816363.37,-2.1275263
2.93,47.813786,13.040745,423.98593,43.89666391999998,0.006691329,-0.0037057567,14.983527,-1.1811846689352037e-05,0.0008487059,-0.0010368824,1816364.0699999998,0.9999108
2.94,47.814026,13.040734,423.9869,44.046476829999975,0.007853544,-0.004732657,14.981291,-1.2592334494123901e-05,-0.0002063606,0.001533513,1816363.1,3.2197507
2.95,47.815517,13.040718,423.98828,44.19627922999998,0.0075881295,-0.004250614,14.98024,-1.7477351914598627e-05,-0.0010625888,-0.00040720403,1816361.72,2.1320200000000002
2.96,47.814754,13.040781,423.99002,44.34610376999998,0.008645704,-0.0044516213,14.982454,-2.7407665498368487e-05,-0.0006072456,0.0020626383,1816359.98,2.8410982
2.97,47.814384,13.040726,423.98566,44.49593195999998,0.007096993,-0.0039993096,14.982819,-3.278048779316311e-05,0.0017657131,-0.0001583919,1816364.3399999999,2.4131500000000004
2.98,47.81299,13.04073,423.98663,44.64576341999997,0.00798754,-0.0035844427,14.983146,-2.372822299208762e-05,0.0018182853,0.0019057654,1816363.37,-0.26340783
2.99,47.814476,13.040673,423.98672,44.795568679999974,0.0073193805,-0.005345363,14.980526,-5.2299651520243316e-05,0.00070968084,0.00015223771,1816363.28,0.83051063
3.0,47.815025,13.040701,423.98602,44.94539939999997,0.007637744,-0.0031317733,14.983072,-3.864111496335152e-05,0.0025700843,-0.00049491413,1816363.9799999997,2.229941
3.01,47.813953,13.040716,423.9858,45.09520796999997,0.008184172,-0.0028038882,14.980857,-2.2822299647620453e-05,0.0022670813,0.00032728724,1816364.2,2.0790257999999997
3.02,47.812904,13.040734,423.98883,45.24501796999997,0.009635117,-0.0019216873,14.981,3.096167246395809e-05,0.0015550191,0.0017422279,1816361.17,1.9347044
3.03,47.813263,13.040707,423.98776,45.394823139999964,0.007935542,-0.004960358,14.980517,-2.1052264805259894e-05,-0.000407028,-0.00061528943,1816362.24,2.7994578999999997
3.04,47.812115,13.040722,423.99097,45.544620499999965,0.009871485,-0.004022699,14.979736,5.6229965097534515e-05,-0.000116438605,0.0009182021,1816359.0299999998,3.6868871999999997
3.05,47.817596,13.040649,423.98355,45.69443084999996,0.006155573,-0.004586691,14.981035,-1.9400696861655993e-05,6.540585e-05,-0.0016385671,1816366.45,0.92847645
3.06,47.816494,13.040667,423.98447,45.844245679999965,0.0065739676,-0.006135436,14.981483,-2.7226480829496244e-05,-0.0013808459,-0.001260493,1816365.53,-0.5967133
3.07,47.812542,13.040724,423.98572,45.99405154999996,0.012895864,-0.00081954896,14.980587,1.2041811846127324e-05,0.004206619,0.0014327429,1816364.2799999998,2.7291122999999997
3.08,47.815296,13.040767,423.98483,46.14390043999996,0.007933479,-0.0032339618,14.984889,-2.738675957501279e-05,0.0012809131,0.0022131242,1816365.17,-1.8600299999999999
3.09,47.814762,13.040754,423.986,46.293737999999955,0.00996725,-0.0013091937,14.983756,-7.101045296063774e-06,0.0022559399,0.0038180063,1816364.0,-2.4301150000000002
3.1,47.816265,13.040686,423.98715,46.44355856999996,0.007582969,-0.005073214,14.982057,-2.3114982574269374e-05,-0.0009209495,1.5476719e-05,1816362.85,-0.288032
3.11,47.816036,13.040711,423.9882,46.593403799999955,0.0075408686,-0.006664874,14.984523,-3.105226479841433e-05,-0.0006994633,0.0009602569,1816361.7999999998,1.0538083
3.12,47.815228,13.040723,423.98645,46.74322369999996,0.0067049395,-0.0029729977,14.98199,-2.8188153302613844e-05,0.0002709059,0.002207948,1816363.55,-0.03056787
3.13,47.815083,13.040704,423.98633,46.89303986999995,0.007948929,-0.0052427445,14.981617,-6.536585365775533e-06,3.427267e-05,-1.9088387e-05,1816363.67,0.10982341999999999
3.14,47.817226,13.040675,423.9885,47.042845589999956,0.007612683,-0.005975796,14.980572,-2.850174216033568e-06,-0.0009766538,-0.0027730763,1816361.5,1.8459111
3.15,47.81378,13.040758,423.98657,47.19266672999996,0.007968774,-0.0028642695,14.982114,-3.649477350295907e-05,0.0013686903,0.002430411,1816363.43,2.025527
3.16,47.817722,13.040696,423.98624,47.34250780999996,0.008314112,-0.001953572,14.984108,-5.40905922817592e-05,0.0002539009,0.0021370985,1816363.76,-3.7569980000000003
3.17,47.81513,13.040716,423.98776,47.49232027999995,0.008243241,-0.0042807367,14.981247,-3.32822299528556e-05,-0.0013973713,0.001595404,1816362.24,1.8152837
3.18,47.815548,13.040738,423.987,47.642142989999954,0.009272631,-0.002631873,14.982271,-1.444599303032453e-05,-0.0006100843,0.00214234,1816362.9999999998,-0.8032974
3.19,47.81603,13.0407505,423.98703,47.79195762999995,0.007439913,-0.0051036533,14.981464,-9.421602787157694e-06,-0.0031978749,-0.0018042233,1816362.97,0.41906536
3.2,47.815166,13.040768,423.9878,47.941786819999955,0.008008875,-0.0043896325,14.982919,1.0801393728280274e-06,-0.0015847739,0.0010676216,1816362.2,1.2502912
3.21,47.811966,13.040834,423.98843,48.09158617999995,0.010147262,-0.0026202966,14.979936,1.0710801393291941e-05,0.0015837718,0.0043809684,1816361.57,5.151434
3.22,47.812416,13.040849,423.9895,48.241416029999954,0.009746568,-0.0026663505,14.982985,-3.2055749127210056e-07,-0.0017209649,0.0032044882,1816360.4999999998,0.6918162
3.23,47.813747,13.040733,423.9847,48.39124690999995,0.007549704,-0.0042019095,14.983088,-5.6850174154764265e-05,0.0009176694,0.0022518262,1816365.3,3.4597088
3.24,47.813877,13.040785,423.988,48.54106052999995,0.008883672,-0.0033795778,14.981362,-4.5839721222260536e-05,0.002636714,0.0051216083,1816361.9999999998,5.426417
3.25,47.81244,13.040678,423.9879,48.69088437999995,0.0068943417,-0.0037441757,14.982385,-7.611846675192188e-05,-0.0007389579,0.0011351295,1816362.0999999999,2.8180964
3.26,47.81382,13.040755,423.98853,48.840701884999945,0.008008859,-0.004359722,14.9817505,-9.602787456148745e-06,0.0004213173,0.0012819618,1816361.4699999997,3.3502625
3.27,47.81442,13.040724,423.98572,48.99052470499995,0.009110972,-0.0024773404,14.982282,-4.022299649399954e-05,0.0017814301,0.0016917167,1816364.2799999998,0.21263771
3.28,47.814007,13.04074,423.99002,49.14036162499995,0.008789941,-0.0044475254,14.983692,5.922648076698919e-05,-0.00055502634,0.0012923423,1816359.98,1.882473
3.29,47.814194,13.040755,423.98602,49.290204654999954,0.008185243,-0.0025016647,14.984303,-4.9637630621263446e-05,0.002422736,0.0015718304,1816363.9799999997,-2.1245517
3.3,47.814114,13.040769,423.9886,49.44001824499995,0.0092546875,-0.003930986,14.981359,-2.6878048774010353e-05,-0.0006611226,-2.7647242e-05,1816361.3999999997,2.0949244
3.31,47.81416,13.040769,423.9879,49.589851574999955,0.008070527,-0.0043239743,14.983333,-3.73519163589479e-05,-0.00065492094,0.0014407802,1816362.0999999999,1.8751761
3.32,47.81654,13.040776,423.98438,49.73969905499995,0.0053040255,-0.0055345558,14.984748,1.4285714286079775e-06,-2.361834e-06,-0.00027497858,1816365.62,-0.7260758399999999
3.33,47.814346,13.040754,423.9868,49.889529064999955,0.008059671,-0.004462991,14.983001,-1.1484320556987364e-05,2.7602538e-05,0.00054602325,1816363.1999999997,-0.33658743
3.34,47.813347,13.040776,423.98785,50.03935124499995,0.009307471,-0.0029295646,14.982218,1.1477351915851283e-05,0.00012762565,0.0024346132,1816362.15,1.1234395
3.35,47.814686,13.040736,423.9876,50.189173314999955,0.008713655,-0.003935341,14.982207,-2.8348432048161435e-05,5.8055855e-05,0.0006354973,1816362.4,-0.3641937
3.36,47.815235,13.040734,423.9871,50.33898154999995,0.007067985,-0.0056135803,14.9808235,-1.3637630661166683e-05,-0.0014324654,0.00014328957,1816362.9,2.913352
3.37,47.813766,13.04075,423.98685,50.488805739999954,0.0072583426,-0.0038103908,14.982419,-4.357491286439327e-05,0.0010216692,0.00018340722,1816363.15,1.3971925
3.38,47.81537,13.040709,423.98407,50.63860123999995,0.005817214,-0.0043376014,14.97955,3.866202088665206e-05,-0.0030221436,-0.0014666654,1816365.93,2.602092
3.39,47.81326,13.040754,423.9882,50.78841260999995,0.008593468,-0.0050209407,14.981137,-6.222996515613576e-06,-0.0010015015,0.00046497025,1816361.7999999998,2.6675397999999997
3.4,47.81333,13.040767,423.98856,50.93820468999995,0.008904588,-0.005001951,14.979208,5.3547038276350874e-05,-0.002178995,0.0013385694,1816361.44,3.9245645
3.41,47.8124,13.040783,423.98767,51.088041744999956,0.0073898835,-0.004724223,14.9837055,-5.891289191790865e-05,-0.001248179,0.0019983267,1816362.3299999998,4.344824
3.42,47.813046,13.040774,423.98804,51.237852304999954,0.009273691,-0.0034729056,14.981056,-5.4425087054280974e-05,-0.00023472123,0.001785594,1816361.96,2.5720577999999996
3.43,47.813988,13.040708,423.98514,51.38767106499996,0.006975758,-0.0045404844,14.981876,-4.179094074219662e-05,0.00052486453,0.0015201997,1816364.8599999999,0.2984833
3.44,47.814274,13.040711,423.98682,51.537479509999955,0.007915521,-0.005766345,14.9808445,-1.533101045175452e-05,-0.00039386377,-0.00082182325,1816363.18,1.7140489
3.45,47.815018,13.040761,423.98807,51.68730084999996,0.007888619,-0.00493226,14.982134,-2.2480836233152156e-05,-0.0017978754,-5.9176236e-06,1816361.93,1.1495501000000001
3.46,47.813866,13.040794,423.9901,51.83711832999995,0.0102160135,-0.0030342173,14.981748,-7.247386759504304e-07,3.2362528e-05,0.003320396,1816359.9,1.9549037999999999
3.47,47.812065,13.040762,423.98743,51.98692878999996,0.008931038,-0.0010237955,14.981046,-1.7331010451241286e-05,0.001977479,0.0021452997,1816362.5699999998,1.8604584000000002
3.48,47.811626,13.040797,423.98807,52.13675404999996,0.008524827,-0.0036092978,14.982526,-4.2515679416898964e-05,0.0016439194,0.0035191448,1816361.93,4.700587
3.49,47.81475,13.040784,423.98767,52.28658134999996,0.0070578214,-0.005728906,14.98273,-1.3226480835465033e-05,0.00047405716,0.00021016039,1816362.3299999998,3.3502793
3.5,47.813835,13.040796,423.98456,52.43640570999996,0.009821303,-0.0021442827,14.982436,-1.1867595818281779e-05,0.0024813935,0.0014489908,1816365.44,-0.12652203
3.51,47.81391,13.040763,423.98825,52.586221389999956,0.009070521,-0.0041242056,14.981568,-4.550522648090381e-06,-0.0012273472,0.0011318028,1816361.75,1.3041813
3.52,47.812958,13.040857,423.98962,52.73604863999996,0.008535679,-0.0032009054,14.982725,-9.630662020614946e-06,-0.00067221373,0.0029154103,1816360.38,1.6090646000000002
3.53,47.811497,13.040764,423.98618,52.885871549999955,0.0083441045,-0.004423596,14.982291,-5.087108009547572e-05,-0.00019142404,0.0032680882,1816363.82,3.4694737
3.54,47.812325,13.040792,423.98557,53.035693979999955,0.008847032,-0.002687823,14.982243,-2.602090591745259e-05,0.0017786315,0.0027048802,1816364.43,0.43178536
3.55,47.814377,13.040792,423.98544,53.18551267999995,0.007677276,-0.005426122,14.98187,5.728222996488697e-06,-0.00084366277,-0.00038710795,1816364.56,1.3322206
3.56,47.812626,13.040808,423.98846,53.33532951999996,0.010275505,-0.0017905235,14.981684,-3.429965155452691e-05,9.376835e-05,0.0029428853,1816361.5399999998,2.386218
3.57,47.811813,13.040778,423.98776,53.48517501999996,0.008100843,-0.0034647882,14.98455,0.00011351916327542631,0.003307011,0.0035712672,1816362.24,-0.4119724
3.58,47.813923,13.04078,423.98752,53.63499641999996,0.008188492,-0.005507551,14.98214,-6.668989546937037e-06,-0.0014112052,-0.00086263195,1816362.4799999997,1.0757316
3.59,47.81508,13.040761,423.98608,53.78483344999995,0.0067072473,-0.005033912,14.983703,-3.489198604856162e-05,0.002208054,0.0018326566,1816363.9199999997,1.5396886
3.6,47.814476,13.040736,423.98657,53.93464383999996,0.008595312,-0.00477715,14.981039,-4.002787454307186e-05,-0.00027201045,0.0005298741,1816363.43,0.18259697000000003
3.61,47.814175,13.040767,423.9856,54.084468199999954,0.0062192203,-0.005253136,14.982436,-5.395818810093875e-05,-0.0029817037,-0.0020777918,1816364.4,-0.5258322
3.62,47.81222,13.040775,423.98883,54.23428992999996,0.012327963,7.1963295e-05,14.982173,-2.4160278740907904e-05,0.0023294669,0.0025689928,1816361.17,1.0006595
3.63,47.81338,13.04081,423.98718,54.38411206999996,0.00919666,-0.0022601075,14.982214,-2.6829268286244972e-05,-0.0011713821,0.0028200438,1816362.8199999998,0.47291443
