Time,X_pos_Lat,X_pos_Lon,Y_pos_m,Z_pos_m,vx_ms,vy_ms,vz_ms,Roll_rad,Pitch_rad,Yaw_rad,Hundimiento_mm,Alineacion_mm
0.0,22.023186,-88.8447,2086.936,0.0,-0.0020077566,-0.0031738572,14.993131,-0.00032561671323067063,0.0045574643,0.010595623,153413.99999999977,-11.117673
0.01,22.387276,-87.08875,2068.661,0.14987993,-0.008475727,-0.008819204,14.987993,-0.0002029268264828337,0.0046915025,0.012207279,171688.99999999985,-10.761015
0.02,22.131456,-88.439705,2081.913,0.29973291999999996,-0.0034974625,-0.0054965788,14.985299,-3.177700347364962e-05,0.004489896,0.010543866,158436.99999999988,-11.18914
0.03,21.877792,-89.15949,2100.1096,0.44966318999999993,-3.3874552e-05,-0.00034973197,14.993027,1.549128919735251e-05,0.00469609,0.01255573,140240.40000000014,-11.254413
0.04,22.004765,-89.04845,2083.294,0.5995976999999999,-0.0034929311,-0.0031082712,14.993451,-0.0002670243838974696,0.0043682232,0.009652541,157056.00000000003,-10.728379
0.05,22.036211,-88.804146,2082.9326,0.7494991899999999,-0.004383824,-0.0001945285,14.990149,-0.0003548292534012422,0.004506221,0.011010911,157417.39999999982,-10.3197815
0.06,22.072386,-88.7646,2080.4236,0.8994448599999998,-0.0019508024,-0.0011357161,14.994567,-0.0004762856782708855,0.0044948026,0.00999986,159926.39999999982,-10.923244
0.07,21.736889,-89.91331,2103.574,1.04930039,-0.0053655566,-0.002991504,14.985553,-0.00028551915600444073,0.004720065,0.01217751,136775.99999999983,-10.3815505
0.08,22.318417,-87.67387,2062.7986,1.19927094,-0.0018550764,-0.0017068749,14.997055,0.0004820696490682538,0.0044024684,0.009968329,177551.39999999982,-9.895312
0.09,22.031422,-88.98424,2081.0312,1.3492579699999998,-0.0010068032,0.002046739,14.998703,-0.0006619859660180615,0.004337961,0.009427278,159318.80000000002,-11.167111
0.1,21.937681,-89.28057,2091.094,1.4991469,-0.004115471,-0.004372519,14.988893,-0.0005914633456638118,0.0044781873,0.010259278,149255.99999999985,-11.335296999999999
0.11,22.336441,-87.62253,2066.866,1.6491569999999998,-0.006537696,-0.0028420656,15.00101,-0.001513796753077515,0.004202393,0.00898242,173483.9999999999,-11.034412
0.12,21.700293,-90.078804,2106.7498,1.7990334999999997,-0.0030030117,0.0001267541,14.98765,-0.00029853657649692736,0.004603657,0.011421718,133600.19999999987,-11.263736
0.13,22.043356,-88.82742,2086.0222,1.9489688799999998,-0.0014310301,-0.0033235594,14.993538,-0.00041726129982577476,0.004507765,0.010513721,154327.80000000002,-11.029827000000001
0.14,21.87774,-89.4687,2093.4084,2.09887346,-0.0026731573,-0.002969363,14.990458,-0.00016521254205083228,0.0044571776,0.0100848675,146941.6000000001,-11.13776
0.15,21.905642,-89.40169,2090.406,2.2488048999999997,-0.0036690736,0.00037121677,14.993144,-0.00044021599943805633,0.0044446583,0.010176091,149943.99999999997,-10.949008
0.16,21.932308,-89.11609,2090.9497,2.3987003099999997,-0.0059919483,0.00018249654,14.989541,-0.0003943623488940366,0.0046207653,0.011415083,149400.29999999978,-10.628996
0.17,22.170694,-87.94163,2079.493,2.5485427599999997,-0.0059696175,-0.0089283455,14.984245,0.0005399790415947749,0.0047087623,0.0127642555,160856.99999999997,-9.632009
0.18,21.989637,-89.06674,2087.662,2.6984925899999994,-0.0021333029,-0.0042648637,14.994983,-0.0005328989042594215,0.004490165,0.010537839,152688.00000000012,-11.311703
0.19,22.280405,-87.90204,2070.4297,2.8483616199999995,-0.0012135778,-0.0031993599,14.986903,-0.0003666968476753349,0.0045046136,0.010320332,169920.29999999976,-11.029788
0.2,22.02946,-88.89812,2085.1584,2.9982212299999995,-0.005583422,-0.0022191368,14.985961,-0.000588341395530693,0.004539908,0.010327404,155191.6000000001,-11.166468
0.21,22.290888,-87.879684,2065.4873,3.148164869999999,-0.0024184876,-0.0011216857,14.994364,-0.0005173797447764122,0.0044349213,0.009585137,174862.70000000013,-10.539990000000001
0.22,21.974304,-89.098076,2089.5752,3.298098199999999,-0.0012290882,-0.0027032197,14.993333,-0.0007604946269079289,0.0044636345,0.010369362,150774.7999999997,-11.467730000000001
0.23,22.382324,-87.491066,2062.2166,3.4479821799999995,0.0037510232,0.0014928782,14.988398,-0.0004684111155679096,0.0044377334,0.010108759,178133.3999999997,-10.466128999999999
0.24,21.908129,-89.35142,2092.9773,3.597916219999999,-0.0023488482,-0.002684871,14.993404,-0.0003462508572428408,0.0044614263,0.010448759,147372.6999999999,-11.276256
0.25,21.737808,-89.91599,2104.9917,3.747796304999999,-0.0041698418,-0.004099078,14.9880085,-0.000298487796013434,0.0046500023,0.011768241,135358.29999999987,-11.267255
0.26,22.043943,-88.77033,2084.1023,3.8977004049999993,-0.0033825494,-0.0031661827,14.99041,-0.00010766550481045553,0.0045154053,0.010354839,156247.6999999999,-10.660707
0.27,22.12433,-88.55709,2076.318,4.0476447449999995,-0.002368552,-0.0037457705,14.994434,-0.00039894074538620954,0.0043781237,0.010085717,164031.9999999997,-10.819030999999999
0.28,21.794426,-89.78474,2099.994,4.197502275,-0.0052655074,0.00019337043,14.985753,-0.00027087107351468615,0.004589825,0.01084899,140355.99999999977,-10.915756
0.29,21.965393,-89.19093,2088.4673,4.347428004999999,-0.0013295419,-0.002598329,14.992573,-0.00048362365567459017,0.004457576,0.010073043,151882.70000000013,-11.034709
0.3,21.782677,-89.63573,2105.2217,4.497325589999999,-0.004860835,-0.007078455,14.9897585,-1.3923344946818366e-05,0.0048462516,0.012533299,135128.29999999984,-11.234531
0.31,22.09865,-88.57087,2081.4548,4.647256979999999,-0.0053640287,-0.0040616984,14.993139,-0.0005390243380398946,0.0045380155,0.0109434975,158895.19999999992,-11.087112
0.32,22.173662,-88.1991,2074.4368,4.797173629999999,-0.0032815556,-0.0009084576,14.991665,0.0002060627148534414,0.0045455704,0.011231892,165913.19999999995,-9.808079000000001
0.33,21.931684,-89.13659,2094.2039,4.947104059999999,-0.0030162104,-0.00577876,14.993043,-0.0002290313548803859,0.0046636695,0.011490811,146146.09999999992,-11.151411
0.34,22.059917,-88.735306,2085.3286,5.097020529999999,-0.003653811,-0.0035322101,14.991647,-0.000737323908197294,0.004596926,0.010725129,155021.40000000008,-11.373091
0.35,22.336569,-87.56062,2069.5562,5.2468583299999985,-0.008569045,-0.00082442735,14.98378,-0.0006082089842375715,0.004618573,0.010985538,170793.79999999993,-10.595834
0.36,21.790745,-89.852646,2100.848,5.396738369999999,-0.004847962,0.0019221874,14.988004,-0.0004699024044383085,0.004488594,0.010195041,139501.99999999994,-11.434204999999999
0.37,22.07912,-88.65023,2081.0396,5.546546949999999,-0.0029381237,-0.0022228698,14.980858,-0.0011290169418910459,0.0045824377,0.010573312,159310.39999999985,-10.914247
0.38,21.959621,-89.219696,2088.6902,5.696457499999999,-0.003114347,-0.0023552552,14.991055,-0.0005882508032275424,0.0044761696,0.010076311,151659.7999999999,-11.297217
0.39,22.078451,-88.60845,2085.9055,5.846340489999999,-0.00407979,0.005480231,14.988299,-0.0006807873512708012,0.0045531904,0.010955088,154444.50000000006,-11.461414
0.4,21.90469,-89.32362,2092.4993,5.996209769999999,-0.0039633377,-0.00035503428,14.986928,-0.00033905225181627666,0.0045549492,0.0108179115,147850.69999999995,-11.089844
0.41,22.993347,-84.91078,2033.9641,6.145948449999999,-0.007784426,0.009429043,14.973868,-0.0006772124400269939,0.0046788813,0.0114693865,206385.9,-10.803876
0.42,23.524162,-82.05268,2003.2192,6.2956929499999985,-0.0013898644,0.0039343317,14.97445,0.0008341600852696594,0.004902399,0.0109765455,237130.7999999999,-7.990086000000001
0.43,23.77482,-81.40642,1970.8655,6.445738989999999,-0.0025753016,0.012159998,15.004604,0.0016414061914036614,0.0048859986,0.008070974,269484.4999999998,-8.724048999999999
0.44,23.563307,-82.42319,1986.8942,6.595512899999999,-0.002982633,0.004768709,14.977391,1.8885017419370643e-05,0.0045860745,0.006381356,253455.79999999996,-9.377233
0.45,23.728853,-81.09074,1978.5433,6.74546584,-0.000981873,0.011238856,14.995294,0.0007913238766378715,0.0056398283,0.012620019,261806.69999999987,-7.6734973
0.46,24.240175,-79.82315,1942.7695,6.89542848,0.0017908562,0.00806676,14.996264,0.0013495322817718152,0.004635076,0.0063793957,297580.4999999998,-9.53231
0.47,23.32019,-83.08354,1995.3016,7.0454770899999986,-0.005500686,0.007253539,15.004861,0.0012884592173110498,0.005217826,0.009029042,245048.3999999999,-8.634018000000001
0.48,23.437475,-82.057884,2000.9857,7.195264039999999,-0.0020373515,0.0020604436,14.978695,-0.0006888640025351915,0.0051273573,0.011195088,239364.29999999996,-7.0472825
0.49,23.10117,-84.157295,2020.8884,7.345040379999999,-0.0077835787,0.002371577,14.977634,-0.0007049127752285118,0.004306973,0.008672153,219461.59999999986,-10.479538999999999
0.5,21.940397,-89.292076,2088.2305,7.494920019999999,-0.0049548987,-0.0020331857,14.987964,-0.0004694494428657111,0.0044664512,0.010047944,152119.4999999998,-11.109674
0.51,23.235352,-84.195564,2008.3141,7.644757239999999,-0.0019170562,0.0027380714,14.983722,-0.0008508151257125914,0.0039950088,0.00630248,232035.89999999985,-10.171004000000002
0.52,23.592613,-81.605446,1998.908,7.794723339999999,-0.005088765,0.0028952372,14.99661,-0.002504858872724785,0.00538011,0.012713067,241442.0,-8.6709205
0.53,24.176842,-80.083305,1942.4597,7.944632599999999,-0.002943437,-0.00046052228,14.990926,0.0005430522114253109,0.004674687,0.0070482027,297890.2999999998,-9.867787
0.54,23.422443,-82.62944,1992.9373,8.094649259999999,-0.0015703744,0.013014348,15.001666,0.00141579696342753,0.005135845,0.009429954,247412.69999999987,-8.292733
0.55,23.992899,-80.55289,1967.7433,8.2445154,-0.0010034117,0.011672059,14.986614,-5.648083617687754e-05,0.0047096773,0.008993235,272606.69999999984,-9.738926
0.56,24.149529,-79.76358,1945.7188,8.394480329999999,0.00029107375,0.012594603,14.996493,0.0006637420628074301,0.005183237,0.010809092,294631.19999999984,-6.787365
0.57,23.871607,-81.183136,1967.4484,8.544436979999997,-0.00013820517,0.009299559,14.995665,0.0017029251831313676,0.004760936,0.00800373,272901.5999999999,-8.758030999999999
0.58,23.450203,-82.7297,1999.1108,8.694368769999997,-0.006871224,0.0021279338,14.993179,0.00020220208783658128,0.0045682634,0.008033313,241239.19999999998,-8.753706999999999
0.59,23.395428,-83.09187,2006.3165,8.844282829999997,-0.0055102757,0.009746885,14.991406,-0.0012726613338096937,0.004469186,0.010358545,234033.5,-10.236469999999999
0.6,21.874557,-89.46329,2095.2598,8.994171159999997,-0.005014556,-0.003320896,14.988833,7.039721242726706e-05,0.0045428975,0.010907919,145090.2000000001,-11.09417
0.61,22.092335,-88.67773,2081.148,9.144127899999997,-0.0011304776,-0.0028710028,14.995674,-0.0004963832344923215,0.0044288062,0.009966563,159201.99999999977,-11.161571
0.62,21.96532,-89.2725,2086.0088,9.294075079999997,-0.0014924442,-0.0022787985,14.994718,-0.0006761323011487851,0.0043653143,0.009507942,154341.19999999984,-11.404911
0.63,21.808968,-89.74518,2097.0251,9.443987959999998,-0.0021372493,-0.0026435065,14.991288,-0.00011551916324921721,0.0044713253,0.010153787,143324.90000000008,-11.184994
0.64,21.760881,-89.96051,2099.6653,9.593878089999997,-0.0036935697,-0.0016889088,14.989013,-0.0002535888447383451,0.0044955425,0.010319619,140684.69999999978,-11.056879
0.65,22.364674,-87.556145,2060.877,9.743778459999998,-0.0048102615,-0.004325818,14.990037,-0.0005915957497986895,0.004396554,0.009824276,179472.99999999994,-10.45015
0.66,22.301014,-87.82114,2069.0444,9.893721319999997,-0.00053206034,-0.004060335,14.994286,-0.0005003274843837945,0.0044373116,0.010133123,171305.5999999997,-11.176112999999999
0.67,22.011644,-88.94442,2086.431,10.043691479999998,-2.0577798e-05,-0.0027890808,14.997016,-0.0003636654891945819,0.0044857403,0.010556016,153918.99999999988,-10.9063
0.68,21.972803,-89.15346,2088.1284,10.193604499999998,-0.0019924543,-0.0046048495,14.991302,-0.000564160218892615,0.004471577,0.010284046,152221.59999999986,-11.134781
0.69,22.223927,-88.15857,2069.3647,10.343552349999996,-0.0015522592,-0.0024010907,14.994785,-5.1226480791427444e-05,0.004367189,0.009747029,170985.2999999998,-10.648484999999999
0.7,22.98922,-84.11829,2030.8297,10.493511689999997,-0.006359612,0.0011166628,14.995934,0.0006779998961114582,0.004856523,0.013419606,209520.2999999999,-8.643792000000001
0.71,22.091038,-88.55944,2082.0598,10.643454259999997,-0.0033279662,-0.0006559363,14.994257,-0.0004644389909965266,0.004571495,0.0105253365,158290.19999999992,-10.954381
0.72,21.82331,-89.74919,2097.0974,10.793387159999996,-0.0019107669,-0.002540203,14.99329,-0.00013554006885640747,0.0044313744,0.009963411,143252.5999999998,-11.185542
0.73,22.101221,-88.49387,2081.3044,10.943347499999996,-0.0042564385,-0.0054338905,14.996034,-0.0005500765995707416,0.004515975,0.010858629,159045.59999999992,-11.105434
0.74,22.165092,-88.24383,2079.0244,11.093256449999997,8.5952146e-05,-0.004259292,14.990895,-8.251567925521827e-05,0.0045888447,0.010879893,161325.60000000012,-10.743414999999999
0.75,22.029722,-88.731606,2087.3638,11.243143749999996,-0.0066774674,-0.004738148,14.98873,-0.0003690034675722751,0.004705685,0.012528421,152986.19999999984,-10.940382999999999
0.76,23.343292,-83.43717,2002.3457,11.392994509999996,-0.010640562,-0.010986816,14.985076,0.0016622144969971034,0.003804588,0.008099903,238004.29999999984,-9.210474
0.77,23.299334,-83.511635,2012.9952,11.542743129999996,-0.004462306,-0.011218371,14.974862,0.0034707526140837085,0.003673718,0.009275201,227354.79999999984,-7.2111865
0.78,23.835176,-79.73027,1995.9382,11.692623829999997,-0.008468929,-0.0023885882,14.98807,0.004345115511634323,0.0043020407,0.0148874875,244411.79999999987,-8.486832999999999
0.79,23.635447,-80.63881,2005.6132,11.842325844999998,-0.0048335437,-0.0048215156,14.9702015,0.0059562710252126765,0.004240294,0.015837438,234736.7999999999,-6.7548393
0.8,24.136097,-78.145775,1975.908,11.992144414999999,-0.0019325869,-0.005109036,14.981857,0.005520835894368968,0.004263159,0.01628003,264442.0,-7.0104008
0.81,23.969309,-79.11456,1984.0627,12.141968064999999,-0.0015936174,-0.0037470623,14.982365,0.0052326491058687,0.004102053,0.014654348,256287.29999999996,-7.7978955
0.82,23.68228,-80.07985,2005.4828,12.291755034999998,-0.0065654186,-0.008820657,14.978697,0.0046575482028897676,0.0045715524,0.017482799,234867.19999999992,-7.3456955
0.83,23.31102,-81.956535,2026.5142,12.441544614999998,-0.0060733333,-0.0066184867,14.978958,0.0021863101053578174,0.0044204528,0.016069673,213835.79999999984,-8.505354
0.84,22.625008,-85.648346,2061.687,12.591285074999998,-0.012570888,-0.011576693,14.974046,0.0014672045221002445,0.0042204354,0.01305029,178663.0,-8.341282
0.85,21.896805,-89.35768,2093.9238,12.741196914999998,-0.004805434,-0.0031588087,14.991184,-0.00044522645141768487,0.0046431366,0.011779375,146426.1999999999,-10.743941999999999
0.86,22.922718,-85.11544,2027.6069,12.891068934999998,-0.005388904,-0.009905502,14.987202,0.001657838202436621,0.003949841,0.009017948,212743.09999999992,-9.084049
0.87,23.124321,-84.15535,2028.8092,13.040951544999999,-0.007904469,-0.010067407,14.988261,0.0027729197221757454,0.0039572543,0.010001985,211540.8,-9.202356
0.88,23.207361,-83.58253,2032.2104,13.190698634999999,-0.010710546,-0.00570498,14.974709,0.003549044332456617,0.003981644,0.010891122,208139.59999999998,-9.24214
0.89,23.868101,-79.299164,1996.7972,13.340618345,-0.0072080567,-0.00239556,14.991971,0.0062896661880839895,0.0042939023,0.015845323,243552.79999999993,-8.577214
0.9,24.421597,-77.304985,1964.8782,13.490505445,-0.010248132,-0.0007017739,14.98871,0.004478193060729606,0.003916094,0.014007464,275471.7999999998,-9.135601
0.91,24.178104,-78.12743,1975.8859,13.640323915,-0.008818931,0.00036301833,14.981847,0.005795767856673394,0.0039512734,0.015356206,264464.0999999999,-7.937313999999999
0.92,23.700607,-80.67315,2007.7368,13.790009195,-0.014287797,-0.014562759,14.968528,0.004743915632336286,0.0042466437,0.012937937,232613.2,-8.768521
0.93,22.71383,-85.688095,2051.0283,13.939858735,-0.008303387,-0.012651271,14.984954,0.0023728387522497577,0.003950571,0.010224473,189321.69999999995,-9.337474
0.94,23.393772,-83.41117,1998.0037,14.089736974999997,-0.0059775203,-0.0019722057,14.987824,0.002032359571122842,0.0038571786,0.008893883,242346.29999999993,-9.405292000000001
0.95,22.20387,-88.18545,2072.7524,14.239697114999998,0.0007325472,-0.0032866145,14.996014,-0.000371219495143272,0.0044799633,0.010302894,167597.60000000006,-10.462828
0.96,22.58295,-86.375534,2053.6697,14.389701484999998,-0.003892584,0.002555874,15.000437,-0.0011217277525163256,0.0048005097,0.0122525375,186680.3,-11.150461
0.97,22.214918,-88.01682,2073.3594,14.539602544999997,-0.0039560585,-0.004066988,14.990106,0.0003277491171843237,0.0044476986,0.009745926,166990.6000000001,-10.983725999999999
0.98,21.89068,-89.41613,2093.6494,14.689491884999997,-0.0055679767,-0.00085210847,14.988934,-0.0005808361716147328,0.0045875856,0.010605994,146700.60000000012,-11.331005
0.99,21.8831,-89.389534,2095.2131,14.839379284999998,-0.004362897,-0.00388554,14.98874,-0.0004955748723218576,0.004667639,0.011868859,145136.89999999997,-10.839497999999999
1.0,48.557625,15.763062,312.53525,14.989137194999998,-4.8017733e-05,-0.010918431,14.975791,-0.0024440369454995924,-0.0017958251,-0.010107746,1927814.75,-3.9851367
1.01,46.85035,8.942118,455.60468,15.138954584999999,0.00043849758,-0.024076086,14.981739,-0.002008011238437737,-0.0014234587,-0.0048268414,1784745.32,-5.283314300000001
1.02,49.018032,18.668978,294.7646,15.288844034999999,-0.0058404915,-0.0032098943,14.988945,0.001944366887708473,-0.0029066205,-0.013522123,1945585.4,3.972873
1.03,46.44772,9.804851,511.80896,15.438706094999999,-0.016384184,0.02359099,14.986206,0.0001934912867838857,-0.0038273674,-0.018333009,1728541.0399999998,4.4843527000000005
1.04,47.738525,14.261405,408.9392,15.588717325,0.037307426,-0.017287435,15.001123,0.002677596388409012,0.0011361629,0.00647255,1831410.7999999998,0.4097597
1.05,47.305542,10.712348,409.67056,15.739202145,-0.02378715,0.01967567,15.048482,0.0021280595053610575,-0.0026204386,-0.014119112,1830679.44,4.719463
1.06,47.875263,15.401556,367.13345,15.889709265,0.0070492118,-0.008926181,15.050712,-0.003244643665991594,0.0006033372,0.00344798,1873216.5499999998,0.49079565
1.07,48.714985,16.909176,322.5986,16.039691545,0.056194272,-0.026902046,14.998228,0.0024438278875148233,-0.00096234883,-0.0056949994,1917751.4,1.5011035
1.08,47.97854,14.3039055,396.41544,16.189856315,0.029008994,0.018537732,15.016477,-0.0010645849636741452,-0.0035722705,-0.018666383,1843934.5599999998,0.90746
1.09,47.200954,10.701694,414.70618,16.339677265,0.018940523,0.0036767165,14.982095,0.0014765006692088456,-0.003069295,-0.01784623,1825643.8199999998,2.1075644
1.1,47.291836,13.508234,445.66928,16.489825375,0.019612804,0.018574663,15.014811,-0.0009584875113576516,-0.00031335943,-0.0012264315,1794680.7199999997,1.2125768
1.11,48.35378,16.15332,378.51065,16.640078655,0.008381527,0.00599386,15.025328,0.000730188023537521,-0.0017289667,-0.008811036,1861839.3499999999,3.1701634
1.12,47.97299,16.894102,432.1901,16.790170745,0.012161271,0.01405001,15.009209,0.00429579239052524,-0.0010997294,-0.0071253004,1808159.9,-0.846953
1.13,47.960068,16.656792,411.49554,16.939838404999996,0.0012524464,-0.025764614,14.966766,0.0033432140249903216,0.0011384869,0.011375822,1828854.46,0.60577143
1.14,47.121334,10.673709,437.22488,17.089647264999996,0.03350834,0.020981876,14.980886,0.0029827855790980967,0.002490846,0.014695284,1803125.1199999999,-1.5272782
1.15,49.084755,19.388166,275.06946,17.240055334999997,-0.0015125815,-0.04453429,15.040807,0.004340293302926309,0.0011790867,0.0067737065,1965280.54,7.6128673000000004
1.16,49.09019,19.055141,310.73502,17.390394235,0.004502078,0.027419258,15.03389,0.0035362500679435335,-0.0011894859,-0.005310685,1929614.9799999997,-2.9798122
1.17,47.760197,14.772324,391.74527,17.54042007,0.03437862,0.025299331,15.0025835,0.0003207944140828725,0.0021431942,0.013987099,1848604.73,0.57067524
1.18,48.506474,20.032084,358.16507,17.69046832,0.0067130136,-0.023080645,15.004825,-0.0013760130688283316,0.0011981991,0.008035629,1882184.93,2.6709428
1.19,49.094074,20.658596,306.867,17.84040668,0.00065102713,-0.01649423,14.993836,0.0011512677840458169,-7.119376e-05,0.0017245773,1933483.0,2.8488433
1.2,48.813286,19.456413,336.39554,17.99157576,-0.021820262,-0.010181386,15.116908,0.001093588414220227,0.00021417477,0.0004350769,1903954.46,1.5365528
1.21,47.623005,12.962015,408.63498,18.14239729,-0.008346171,0.018658783,15.082153,-0.0024391240828007454,-0.0016812313,-0.007009943,1831715.0199999998,-0.5247649
1.22,47.228737,9.939707,387.33704,18.292356480000002,0.009090768,0.027459333,14.995919,-0.0023026022023204707,-0.0010697584,-0.006687355,1853012.96,-0.52375835
1.23,47.235214,13.276741,442.1158,18.44224111,0.021470955,0.02629248,14.988463,-0.0018794542330276432,3.9984734e-05,0.0030196528,1798234.2,0.60912315
1.24,48.336327,17.443624,367.4693,18.592618350000002,0.0012758113,-0.0021783572,15.037724,0.0014099502852032864,0.00056026684,0.0063746804,1872880.7,4.735604
1.25,47.235992,13.564422,439.82944,18.74348836,-0.017671557,-0.029026246,15.087001,0.0018287366373544063,0.0002861893,-0.00041872496,1800520.5599999998,4.2282715
1.26,47.8401,14.246402,409.5441,18.89298419,0.030974992,-0.006642073,14.949583,0.003014032684927696,-0.0010746006,-0.0052614603,1830805.9,1.3625103
1.27,48.016705,16.037367,406.53757,19.04324061,0.008905224,0.0060580196,15.025642,-0.0014817132013590598,0.00080116256,0.004139613,1833812.43,2.6396045
1.28,47.881855,14.246898,368.0078,19.193261380000003,0.008507923,-0.006123961,15.002077,0.0022824768725548915,0.0016920406,0.009211762,1872342.2,2.2533222
1.29,46.97453,10.086131,428.60736,19.343262950000003,-0.00015858856,0.0003343803,15.000157,0.0010298254199148198,-0.0014098159,-0.005748703,1811742.64,-1.3513619000000001
1.3,47.764362,14.913163,397.1151,19.493479390000005,-0.0006373337,0.015844133,15.021644,0.00407764290518665,-0.0032372728,-0.01799834,1843234.9,8.374904
1.31,47.84536,15.086184,399.7847,19.643165320000005,-0.0124005815,0.013967133,14.968593,-0.0016132808303484232,-0.00051939365,-0.00240123,1840565.3,2.360041
1.32,48.55059,17.756615,364.52017,19.793178410000007,0.01925047,-0.00480809,15.001309,-0.0005063762633390618,0.0002318351,-0.0001018818,1875829.8299999998,-1.4526993000000001
1.33,47.90429,15.360256,428.53113,19.942688370000006,0.0348199,0.009556155,14.950996,-0.000949038042601658,-0.0023105047,-0.010451451,1811818.8699999999,-4.3838704
1.34,47.96852,14.968892,374.06082,20.093238870000008,-0.0027188167,0.0088626705,15.05505,0.0001614634132309985,-0.0011670595,-0.003535166,1866289.18,0.068556925
1.35,46.918243,10.126777,445.28033,20.243382690000008,0.009456005,0.0014092479,15.014382,0.0004156933558468667,-0.0011500227,-0.0040562153,1795069.67,-1.4031369
1.36,48.237053,14.653595,338.75925,20.393268260000006,0.01706259,-0.020884026,14.988557,-0.0024792562442716957,0.0002592209,0.00054717495,1901590.7499999998,-1.4936882
1.37,47.799652,14.8306265,385.7966,20.542697300000007,0.0023103696,-0.0015461342,14.942904,-0.0021897665348030843,0.00086634967,0.006598645,1854553.3999999997,-3.28658
1.38,49.04314,19.42292,306.02823,20.691766930000004,0.005983071,-0.0040839477,14.906963,0.00490649721244838,0.0013525725,0.009596968,1934321.77,-1.2953316000000001
1.39,47.67426,14.255231,427.06253,20.842438180000002,-0.0010544385,0.0067915837,15.067125,0.0012436021463599323,-0.001655031,-0.01098731,1813287.47,1.6888294
1.4,48.042004,14.93628,372.8335,20.99210769,0.0058144866,0.006607206,14.966951,0.0029481587059125842,-0.00038073884,-0.0029320708,1867516.5,1.4776054
1.41,49.215336,21.798012,328.8092,21.142330610000002,-0.015665922,-0.02439511,15.022292,-0.002154498408524977,0.0020260736,0.012805888,1911540.8,2.7021454
1.42,47.967735,14.970385,390.54324,21.292361810000003,0.022293309,-0.016911512,15.00312,0.004744124686864768,-0.00042202036,-0.004483715,1849806.76,3.6894656
1.43,47.690643,15.644664,446.9812,21.441778660000004,-0.027814515,0.010991655,14.941685,0.0030091198374994376,-0.0015272291,-0.0047775023,1793368.8,3.1193187
1.44,48.003437,17.2028,400.4831,21.592166820000003,0.010816369,0.0628472,15.038816,0.0038046366944562847,-0.0009518061,-0.0013198357,1839866.9,7.5621074
1.45,46.836235,10.181077,456.0929,21.741981320000004,0.011087066,-0.007013929,14.98145,-0.0016679148296253094,0.00014718567,0.0021880583,1784257.0999999999,-0.5857667400000001
1.46,47.897854,15.712295,387.13974,21.892455820000006,0.023056658,0.029546604,15.04745,0.0006692612241187441,-0.00072691066,-0.0035837265,1853210.2599999998,3.1325244
1.47,48.38013,16.712906,340.05252,22.042458580000005,-0.008132888,0.0023914012,15.000276,-0.0006084459179477965,0.0004436788,0.0045202165,1900297.48,-3.6688992
1.48,48.012924,16.2276,404.39957,22.192596220000006,-0.00930169,-0.013607843,15.013764,0.003411150532347927,-0.0011310687,-0.0015672185,1835950.43,0.7446713
1.49,47.49375,13.076169,426.3786,22.342303710000007,0.018463993,-0.019677307,14.970749,0.000254034837740956,1.4187244e-05,-0.0013557065,1813971.4,-1.4569543
1.5,47.004566,12.849148,475.63608,22.492182730000007,-0.026521856,0.020598367,14.987902,0.0016678730178949607,0.0003784372,0.005563167,1764713.92,1.1523619
1.51,47.401398,14.664852,441.19092,22.642391560000007,0.010427576,-0.0004208266,15.020883,-0.0035154140900348877,0.0013282843,0.0036749435,1799159.0799999998,1.7078058
1.52,46.344063,9.04574,504.9049,22.792757275000007,-0.009291222,-0.015506936,15.0365715,0.0006879998914464723,-0.002025488,-0.011898972,1735445.0999999999,-0.48429007
1.53,48.640545,16.845474,326.98727,22.942506635000008,0.017958973,0.032314666,14.974936,-0.0003990243690662644,-0.0021363986,-0.010492594,1913362.7299999997,0.4193487
1.54,47.92257,15.535803,405.58197,23.09246536500001,-0.0132990945,-0.0034721748,14.995873,9.234146315218786e-05,0.0002861745,0.0040264204,1834768.03,-1.9042434000000001
1.55,47.675526,14.002015,415.42868,23.242590785000008,-0.032199062,0.031482495,15.012542,0.0023001492536396844,-8.355829e-05,-0.003791903,1824921.3199999998,5.587632999999999
1.56,47.10251,11.473112,425.81598,23.392572125000008,-0.0012875237,-0.0010518846,14.998134,-0.0024259046488272055,-0.0014876161,-0.008211482,1814534.0199999998,-0.72028826
1.57,48.285812,19.235144,402.94678,23.54344748500001,-0.0098912725,-0.02623661,15.087536,-0.0022113970920755433,0.0003908868,0.0022760646,1837403.22,2.1527833
1.58,47.831787,15.947767,390.88538,23.69344519500001,0.014458365,0.01991936,14.999771,-0.0030214542201284517,0.0008555561,0.0073687662,1849464.6199999999,0.19385875
1.59,49.304832,20.860321,279.939,23.84384256500001,-0.010629495,-0.021547608,15.039737,0.00305140516349185,-5.2748932e-05,0.0017188687,1960410.9999999998,4.6932176
1.6,48.23277,15.004475,348.1245,23.99351967000001,-0.009312274,0.027090767,14.9677105,0.0027746409632881056,-0.0016426196,-0.0072073517,1892225.5,-0.35134229
1.61,47.64643,14.710093,401.64728,24.143322340000008,0.010836478,-0.008993416,14.980267,0.0016877963067552665,-2.0223088e-06,-0.00027701305,1838702.7199999997,-0.114141454
1.62,47.125942,12.47134,462.60782,24.29342963000001,-0.006451932,-0.009996776,15.010729,-7.232055736522412e-05,-0.00032635732,-0.0024105217,1777742.18,-2.0135335999999997
1.63,47.355453,12.40159,449.13425,24.443271020000005,0.011700967,-0.004291732,14.984139,-0.0009272610582846289,-0.0013146976,-0.0058748685,1791215.7499999998,-0.2613117
1.64,48.50653,18.892324,384.54895,24.593031440000004,-0.013712843,-0.013165964,14.976042,-0.0010522992631522645,0.0007773059,0.0035070637,1855801.05,2.8618685999999998
1.65,47.66731,15.540268,423.78934,24.743075020000003,0.021437153,-0.023807665,15.004358,0.001344772708528044,0.0003827538,0.0080126105,1816560.66,-2.463331
1.66,47.402004,12.790379,414.22574,24.893266250000003,0.039116047,-0.0012446515,15.019123,0.003485205400928719,-0.000573362,-0.0014587523,1826124.26,1.3231522
1.67,47.835064,15.364635,408.16043,25.043223730000005,-0.0011098208,0.0029972687,14.995748,0.0003864250678738084,-0.0009267613,-0.005299411,1832189.57,-0.5339398000000001
1.68,47.612385,12.995555,394.62622,25.192854530000005,-0.008547254,0.00095157925,14.96308,-0.004438458658895186,-0.00035650854,-0.00077961036,1845723.7799999998,0.05937001
1.69,48.80564,18.668346,358.16656,25.343078420000005,0.017570026,-0.015877288,15.022389,0.002912395946793913,-0.00023271299,-0.0013771942,1882183.4399999997,-1.6264876
1.7,47.28602,12.409294,412.0539,25.492941710000004,-0.0045973216,0.016945992,14.986329,-0.0032329434402933966,0.00029122454,0.002643298,1828296.1,0.36621560000000003
1.71,48.4845,18.53852,357.91965,25.642865240000003,0.015468148,-0.024877913,14.992353,-0.004881926372440476,-0.00041282907,-0.0006027811,1882430.3499999999,0.11319609
1.72,47.850143,17.703432,462.57266,25.793146350000004,-6.408398e-05,0.01649051,15.028111,0.0005229407188814825,0.00087236526,0.0041551776,1777777.3399999999,1.3964055
1.73,48.27012,17.332699,382.8381,25.943237820000004,-0.00082736136,0.0116901845,15.009147,-0.0008890520305686894,9.705207e-06,0.0005454647,1857511.9,0.12472739999999999
1.74,48.156296,16.327705,380.1408,26.093476100000004,0.029206777,0.0018588465,15.023828,0.0008199998162107286,0.00020561027,0.003782392,1860209.1999999997,-0.86132594
1.75,47.7537,14.773066,412.23615,26.243532840000004,-0.01679916,-0.01678559,15.005674,0.002171104602622412,0.00075219956,0.0065697744,1828113.8499999999,-0.46632718
1.76,47.34048,14.138093,460.1491,26.393650910000005,-0.004179501,0.024308661,15.011807,0.00204086127801975,-0.00052394083,-0.004741076,1780200.9,0.79697557
1.77,46.74128,9.010137,449.1912,26.543849970000004,0.020548027,-0.017340751,15.019906,-0.0010608009958220214,-0.0014349165,-0.00832629,1791158.7999999998,-1.3449689999999999
1.78,48.69656,17.671423,353.5945,26.693388860000002,-0.010431824,-0.011242071,14.953889,0.002281793949282418,-0.0011666552,-0.002071912,1886755.5,-3.5172915
1.79,48.488125,17.437653,373.82986,26.84361906,0.015189875,0.0026318242,15.02302,-0.00034970730281731765,0.0013486793,0.004856671,1866520.14,-0.9872951000000001
1.8,47.159428,11.277402,451.38263,26.993254,-0.0063388706,-0.032148786,14.963494,0.00025626480275261,-0.0012380868,-0.0026124325,1788967.3699999999,-3.7216549999999997
1.81,46.853054,10.898474,481.99152,27.14351179,-0.0398128,0.02167609,15.025779,0.005725247548777805,-0.0023881092,-0.013809238,1758358.48,0.6551654
1.82,47.70956,13.690174,410.13504,27.293315430000003,0.0071631237,0.0071117496,14.980364,-0.0032374590724725486,-0.0029254188,-0.01435213,1830214.9599999997,-3.340004
1.83,47.11563,13.058147,467.49557,27.443088540000005,0.025483778,-0.014048128,14.977311,0.0013978388108163702,-0.0012042003,-0.005813418,1772854.43,3.4774053
1.84,48.5472,16.939598,349.8036,27.593591370000006,0.012045009,-0.007608831,15.050283,0.0011377625752559079,-0.0016780334,-0.010015922,1890546.4,-0.22078643
1.85,46.417484,7.601846,475.0439,27.743878330000005,0.0048534796,0.007731,15.028696,0.0011058532077495738,-0.0013276121,-0.006419594,1765306.0999999999,-0.09249663
1.86,47.951286,16.695742,400.03876,27.894063950000003,0.013902438,-0.0052256193,15.018562,0.002268860218332827,0.00034205115,0.00053777266,1840311.24,2.6241003
1.87,48.52215,17.147245,364.693,28.043956300000005,-0.00090779853,-0.031739324,14.989235,-0.0018453428530896391,-0.0014511431,-0.0039480617,1875657.0,-4.3884376
1.88,47.74223,13.106706,384.72293,28.19416092,-0.013573235,0.0058441716,15.020462,-0.005378275668468797,-0.0017538777,-0.009797192,1855627.07,-9.715103
1.89,48.151516,17.544489,388.09848,28.34452101,0.029703721,-0.009458925,15.036009,-0.003009412517775805,0.0012291921,0.009743825,1852251.5199999998,1.1608135000000002
1.9,47.325184,13.542864,455.92422,28.494161570000003,0.02646069,-0.028883122,14.964056,0.003537197791280538,0.0022186441,0.0125903115,1784425.78,0.6218281299999999
1.91,48.3167,16.80087,396.89972,28.643667960000002,0.021985952,0.018011982,14.950639,0.0016339218909186735,-0.0013149186,-0.0037943283,1843450.28,0.7837117
1.92,47.56251,14.774586,412.47452,28.793144790000003,0.014648752,0.04887757,14.947683,0.009894750239341134,-0.00076277996,-0.005874705,1827875.48,9.5681455
1.93,48.074387,16.307333,407.78824,28.943283370000003,0.01630804,-0.013949047,15.013858,0.002310358258620223,0.00066480367,0.0030596585,1832561.76,1.0952528
1.94,48.48528,18.740496,385.28857,29.093423860000005,-0.012872798,-0.00255819,15.014049,0.0015242009102559384,0.0005311263,-0.0008839676,1855061.43,1.3101181
1.95,48.209507,15.311706,360.15125,29.242818590000006,0.010943621,-0.006944606,14.939473,-0.0016852388227404412,-1.1872267e-05,-0.0010821681,1880198.75,0.42479497
1.96,46.696674,8.92607,443.47433,29.393062025000006,0.0042768274,0.022241741,15.0243435,-0.0013382082604111829,-0.0020995606,-0.011375532,1796875.67,-1.5042233999999999
1.97,47.662865,12.989097,372.83676,29.543201005000007,-0.0007744627,0.013968378,15.013898,0.00033182577179321343,-0.0015184609,-0.008151368,1867513.2399999998,2.282466
1.98,47.44817,13.210158,420.58423,29.693992405000007,-0.0027814899,0.029696006,15.07914,0.0014488909721834824,-4.689995e-05,0.0028460845,1819765.77,0.2230804
1.99,47.908775,14.792366,385.19293,29.843695045000008,-0.012835431,-0.012610711,14.970264,-0.001752660226286077,-0.00023020167,-0.0016874194,1855157.07,-2.5091055
2.0,47.767902,14.116246,395.13104,29.99365398000001,0.02412206,0.0056666266,14.9958935,0.004920211167087862,-0.0007709453,-0.0027647512,1845218.96,-1.8257672999999999
2.01,47.68357,15.256086,449.9839,30.144043150000005,-0.0024015163,0.009790492,15.038917,-0.0001903972102428379,-0.0009953033,-0.005317031,1790366.0999999999,-1.4040325999999999
2.02,47.907227,14.303865,413.5276,30.29455307000001,-0.012659918,-0.007664531,15.050992,7.966550505792076e-05,-0.0018593736,-0.013981556,1826822.4,3.5237469999999997
2.03,48.890175,18.807278,316.38602,30.444810030000006,-0.0024695492,-0.009669371,15.025696,6.535191628325687e-05,-0.0008557309,-0.001567512,1923963.98,3.1779260000000003
2.04,47.883854,15.039404,403.51678,30.59437276000001,0.010153341,-0.0032399863,14.956273,0.0025845029562561674,-0.00034956203,0.0014149449,1836833.22,-0.6191068
2.05,48.524937,18.373083,346.42392,30.745120765000006,-0.018095974,0.0073113986,15.0748005,0.00021895470033379125,-0.0027281144,-0.006382206,1893926.0799999998,4.8916154
2.06,47.361298,12.064064,423.78564,30.89501904500001,0.017297907,0.001471966,14.989828,0.0025119389675489624,-0.0020644576,-0.012972454,1816564.3599999999,1.3682093000000002
2.07,47.26785,12.934068,389.29688,31.046212695000005,0.032248404,-0.018913236,15.119365,-0.0036113292483636768,0.0014988789,0.0041442635,1851053.12,1.3967354
2.08,48.449127,17.289438,361.1632,31.195780735000007,0.027462063,0.013535568,14.956804,-0.0006290800563884155,-0.00066125556,-0.0024867335,1879186.8,-2.5311187
2.09,48.091167,16.224997,385.2566,31.345961135000003,0.004823277,-0.021871287,15.01804,-0.00032616026717992606,0.0028962425,0.016390305,1855093.4,0.57459174
2.1,47.096035,10.623737,446.00888,31.496205755000005,-0.00039302476,-0.00077129446,15.024462,-0.00034220207723479126,-0.0011963657,-0.004488356,1794341.12,0.6128951
2.11,48.442608,17.688066,352.2966,31.646518525,0.008269582,-0.01512721,15.031277,-0.0031162338152411575,0.0008701108,0.005801374,1888053.3999999997,3.546895
2.12,46.933933,11.436742,473.32532,31.796519555000003,-0.00042636885,0.004204134,15.000103,0.0010634839196245938,-0.0037197212,-0.019324388,1767024.68,3.9293696
2.13,48.827377,18.648373,333.76398,31.947466395,-0.00031223672,0.015343459,15.094684,0.0032506505712761886,-0.0005425626,-0.002292072,1906586.02,-1.9031832
2.14,48.09773,16.460121,403.29642,32.097281595000005,0.0013296602,-0.0064475057,14.98152,0.00033101740951264734,-3.8073194e-06,-0.00032552285,1837053.5799999998,1.7573058000000001
2.15,46.886913,12.880313,506.13104,32.247314355,0.012833714,0.0099224355,15.003276,-0.006062525027605181,-0.00025473844,0.000110084424,1734218.96,-0.36445027
2.16,47.51018,15.047745,402.95178,32.397544665000005,0.0031515036,-0.006101529,15.023031,-0.00027152612573128645,0.0032277626,0.019714706,1837398.22,5.1534846
2.17,46.738277,11.36055,482.65796,32.547280285,-0.012139816,-0.0056945663,14.973562,-0.0016790646241833648,0.00063629885,0.0068540163,1757692.0399999998,-1.3286443000000001
2.18,46.773483,11.789619,484.73087,32.696894945000004,-0.02160958,-0.021100167,14.961466,0.0010980274332801103,-0.0016484093,-0.009099111,1755619.1300000001,2.6765252
2.19,48.368385,17.066153,391.60678,32.846359505,0.009673013,-0.019161081,14.946456,0.007217742255180088,-0.0014979736,-0.008058971,1848743.2199999997,3.3760888000000002
2.2,47.450294,13.713963,438.7596,32.996249045000006,-0.013743692,-0.0021340756,14.988954,0.0017399703695151003,0.00038088043,0.00050301803,1801590.4000000001,1.8445193
2.21,47.49868,12.66351,416.04797,33.146967665000005,0.0063034417,-0.021918591,15.071862,0.0028430027932573017,0.00025163562,-0.0011182893,1824302.0299999998,0.54555206
2.22,46.926178,10.0288515,437.19995,33.29675973500001,0.00397125,-0.014435211,14.979207,0.003138616871576176,-0.00087337126,-0.0060772514,1803150.05,0.5418438
2.23,46.88767,10.955346,452.7408,33.446595935000005,0.008050216,0.02221611,14.98362,0.00046816721318235373,8.8858855e-05,-0.0019796346,1787609.2,2.0437492
2.24,47.609444,13.800528,416.65448,33.59651895500001,-0.0147764925,-0.0010229057,14.992302,-0.002061390808373348,-0.0006956025,-0.004480798,1823695.52,-0.9511253000000001
2.25,47.92646,16.016565,399.80795,33.746568785,0.009766731,0.0025698745,15.004983,-0.0022506582206899923,-0.0019450923,-0.0062289303,1840542.05,3.8649244
2.26,46.543423,10.90852,497.04675,33.897049544999994,-0.015691115,0.0015754362,15.048076,-0.0007497768629847461,-0.0004737612,-0.005215091,1743303.25,1.3597503
2.27,49.0278,22.131609,354.68307,34.046814614999995,0.017503178,-0.0022755475,14.976507,0.003145216109566291,0.00093549804,0.004828763,1885666.93,4.159847
2.28,47.557163,16.443363,448.18942,34.19650390499999,0.017786572,-0.009133979,14.968929,-0.00034617420219975963,0.002701913,0.016336957,1792160.58,1.2251073
2.29,47.503727,12.340368,414.9137,34.346197145,-0.0021229004,-0.004240893,14.969324,0.00040528220777544087,8.0145546e-05,0.0020837164,1825436.2999999998,-2.1991853
2.3,47.56165,14.09888,438.85138,34.496008544999995,0.019964846,-0.0087146275,14.98114,0.0025481826379797254,-0.0010036062,-0.0069435174,1801498.6199999999,4.5885723
2.31,47.734848,14.739259,454.83325,34.645633075,0.0009172489,-0.009378353,14.962453,1.4843205573820394e-05,-0.00037197376,-0.0036193274,1785516.7499999998,-0.48181263
2.32,48.07413,15.650463,403.50177,34.795989465,0.003911418,-0.0047634933,15.035639,0.003992466591717127,-0.0024530492,-0.0105181215,1836848.2299999997,-5.0927363
2.33,47.70958,13.722879,382.30215,34.945740095000005,0.033983983,-0.020920826,14.975063,-8.662020884259817e-05,-1.9688392e-05,0.00014190166,1858047.8499999999,1.7592983
2.34,47.12034,14.619286,473.15836,35.095231725000005,0.0032289133,0.01625207,14.949163,0.002472259771476479,0.000376693,0.006632763,1767191.64,3.7908174999999997
2.35,49.628773,22.982315,306.6962,35.24505070500001,-0.016262714,0.015099022,14.981898,0.007199791968511098,-0.00031003557,-0.0003205228,1933653.8,0.4567454
2.36,46.887012,11.746538,456.1726,35.39479726500001,0.0012987398,0.0012714796,14.974656,0.0012831630588199007,0.001177857,0.0053363214,1784177.4000000001,0.83426246
2.37,48.329514,16.11752,361.09192,35.54485267500001,0.0018302047,-0.0009904106,15.005541,0.0012823546977806795,-0.0014383598,-0.0040307324,1879258.0799999998,-1.0677157
2.38,48.493847,19.116457,389.9458,35.695497845000006,-0.041852403,-0.004653629,15.064517,0.00021655748790386082,0.0003483631,0.003959884,1850404.2,0.46751030000000005
2.39,47.2342,11.751693,468.36438,35.84544399500001,0.008928613,0.023956545,14.994615,0.0001378188144584264,0.0006538883,0.002832538,1771985.6199999999,5.4549009999999996
2.4,47.168995,12.032837,433.0922,35.995274765000005,0.00083652633,0.002051091,14.983077,-0.000527944201820662,4.896211e-05,-0.00081348256,1807257.7999999998,-1.0635108
2.41,48.417927,19.322409,407.77597,36.14438246500001,0.010783702,0.0068685627,14.91077,0.004718989361093132,0.0037980909,0.0185838,1832574.03,5.0354847
2.42,47.897816,16.08985,425.81915,36.294969055,-0.010319001,0.025813995,15.058659,0.004094736696423961,-0.00032477884,-0.00041656056,1814530.8499999999,0.7838451
2.43,46.998173,10.30249,423.28094,36.44570587500001,0.0064753024,-0.030149836,15.073682,0.0004274215767590363,-0.0008774524,-0.005362405,1817069.0599999998,-0.588918
2.44,47.427853,12.59073,415.0873,36.59547306500001,-0.010339682,-0.001880375,14.976719,-4.2613240392323316e-05,-0.0011656695,-0.0035342518,1825262.6999999997,2.7476065
2.45,47.392193,12.6373625,421.44394,36.74557042500001,0.0058264625,0.012282688,15.009736,0.0012263199427528391,-0.0016533481,-0.012058354,1818906.0599999998,4.2728344
2.46,47.98307,16.012308,404.32877,36.894912725000005,-0.009812943,-0.0088416,14.93423,0.003223278035787963,-0.002055549,-0.010625984,1836021.2299999997,4.5737717
2.47,48.19668,17.478758,406.82587,37.04453470500001,-0.00017995403,0.014130871,14.962198,-0.0011000762112931398,-0.0011906968,-0.0058887303,1833524.13,0.7424867399999999
2.48,46.776627,11.36114,510.04727,37.19468303000001,0.02573422,0.013881024,15.0148325,-0.0001106620204541876,-0.0010030316,-0.0023100309,1730302.73,-2.642427
2.49,48.04473,15.651045,418.18765,37.34470074000001,0.01400224,-0.007362945,15.001771,-0.002700996916031198,-4.1774445e-05,0.002836394,1822162.3499999999,-0.71453897
2.5,48.11797,17.44721,406.36044,37.494472460000004,-0.03183141,-0.015472822,14.977172,-0.001620618790257193,-0.00080665806,0.0018788055,1833989.56,-0.67735824
2.51,47.538795,15.961077,440.71686,37.64458054,0.01757743,-0.0006504855,15.010808,0.003534068910533466,-0.0012574376,-0.0031376139,1799633.14,7.4210158
2.52,46.66188,11.906612,500.11557,37.79382901,0.010798061,0.0058423714,14.924847,0.00185542644225747,0.00051373674,0.0016565064,1740234.43,1.2096285
2.53,48.16236,18.786518,394.95035,37.94348416,0.012373494,-0.035345804,14.965515,0.0035830857113982807,0.0030184723,0.018017864,1845399.65,1.4346946
2.54,47.856014,17.403929,405.99393,38.09255152,0.009267887,0.00232941,14.906736,0.004612887141558787,-2.0906038e-05,-0.0024877267,1834356.0699999998,11.446983000000001
2.55,46.93271,13.064164,519.6901,38.241593349999995,-0.02621291,-0.022478612,14.904183,0.001571880238495282,0.00086479995,0.006814476,1720659.9,-0.6540924
2.56,47.00261,12.875518,473.81302,38.3922306,-0.00034728,0.0061528627,15.063725,-0.0031209306336731704,0.0010566737,0.0011406213,1766536.9799999997,-0.5810377
2.57,47.9205,14.397315,380.72037,38.542118959999996,0.0053162174,-0.011673217,14.988836,0.004402905346737438,-0.00092938484,-0.0038921626,1859629.63,7.67061
2.58,48.097923,17.91712,390.86343,38.69164583,0.027323036,-0.02526145,14.952687,-0.0002008850147193865,0.0011579262,0.0059220763,1849486.57,8.711231
2.59,46.826317,11.424182,461.70667,38.84147176,0.0010738665,-0.00691608,14.982593,-0.007616821338610732,0.002235393,0.015630595,1778643.3299999998,-7.517035
2.6,47.087276,12.571073,444.2747,38.99171691,0.011322332,-0.008792998,15.024515,0.001486556396266067,-0.0014283566,-0.007228312,1796075.3,3.013752
2.61,47.686478,15.200926,431.31284,39.14159799,-0.021293063,0.0061900695,14.988108,0.0013687169153225067,-0.00017474093,0.00129552,1809037.16,1.4073347999999999
2.62,47.53971,14.087068,441.2918,39.291777440000004,-0.032314416,-0.0031567453,15.017945,-0.0007779301566607696,-0.0010135265,-0.0027962304,1799058.2,0.81958016
2.63,46.908627,12.546532,476.9534,39.44224704,-0.005884884,-0.0017617514,15.04696,0.0024319952052285214,0.00020552814,0.002652925,1763396.6,2.1161464999999997
2.64,48.485935,21.273369,442.69067,39.59180826,-0.015433692,0.0035059876,14.956122,0.0022289440439106326,0.000855772,0.0066020596,1797659.3299999998,4.3181116
2.65,48.36388,17.108215,353.20856,39.742192949999996,-0.0047168364,0.008454408,15.038469,9.02439021940485e-05,0.0011112017,0.005338886,1887141.44,1.1432415
2.66,47.650932,14.876586,466.04196,39.89251889,-0.014804233,0.0034270596,15.032594,0.002903908213700036,-0.00092692685,-0.0009675543,1774308.0399999998,-1.9985298
2.67,47.04742,12.170296,424.64478,40.04232019,-0.021419944,-0.0024105043,14.98013,-0.006224316830221351,0.0016341815,0.00987566,1815705.2199999997,-1.0540998
2.68,47.854027,14.691685,404.8276,40.19230205,-0.008980725,0.009617792,14.998186,0.0009765571808533025,-0.00273363,-0.015742166,1835522.4,-1.0819756
2.69,47.92313,14.3279085,385.65875,40.34270238,0.0059850495,0.0043864413,15.040033,-0.0012270168058157395,-0.0011977731,-0.0045541893,1854691.2499999998,-4.90529
2.7,47.65651,15.43411,457.42273,40.493219360000005,-0.009879068,-0.027159289,15.051698,-0.001466326475208789,-0.001329191,-0.0066902656,1782927.27,-2.3543455
2.71,47.884422,15.009145,398.99402,40.64322963,-0.014083063,-0.00070984755,15.001027,0.0012761317114487443,-0.0027243241,-0.010402026,1841355.9799999997,4.72255
2.72,46.390327,10.11362,503.88983,40.79369433,-0.021654012,0.00053174223,15.04647,0.001679615145278872,-0.0007052373,-0.0022381493,1736460.17,0.7420445999999999
2.73,48.09868,16.368523,373.65216,40.944085779999995,0.012168177,0.01137514,15.039145,0.00020036933529762933,-0.0014544006,-0.009492528,1866697.8399999999,3.419377
2.74,48.681202,19.3309,343.2547,41.09460971,-0.023723204,-0.0091797635,15.052393,0.0004793449110219153,0.0015056093,0.007339679,1897095.3,5.696618
2.75,47.567226,13.77956,416.56366,41.24469238,0.0011005972,0.00909118,15.008267,-0.002336804108867577,-0.00029938674,0.001480442,1823786.3399999999,-2.1122347
2.76,48.126606,17.326843,426.72498,41.394639569999995,0.013096155,0.0028647583,14.994719,0.0030660670472220067,-0.0009363791,-0.0050273594,1813625.02,3.3209224
2.77,48.811127,19.543215,336.9212,41.54516264,0.003290657,-0.006107276,15.052307,-0.005326235347442654,-0.00044546177,-0.0030926892,1903428.7999999998,2.0961012
2.78,48.507233,18.14998,390.58707,41.69436739,0.0065434114,0.019612622,14.920475,0.005885966869929246,0.00029606684,0.0007739165,1849762.93,-0.8395668700000001
2.79,48.113434,15.375577,375.92828,41.844510775,-0.008659546,0.033554,15.0143385,0.0017968482404073706,-0.0017150132,-0.005360234,1864421.7199999997,1.4289683
2.8,48.440777,17.00848,387.74173,41.994354035,-0.018150026,0.0066450867,14.984326,-0.004384466678301154,-0.00081649795,-0.004018657,1852608.27,-1.9529302
2.81,46.531628,9.788333,483.8349,42.144595425000006,0.00760353,-0.0029717402,15.024139,0.0015390719555088133,-0.0020405422,-0.012756027,1756515.0999999999,1.5930829999999998
2.82,46.231415,8.604875,524.55084,42.294088280000004,-0.014911557,0.008843995,14.9492855,0.0024733956530324014,-0.0009283122,-0.0047334475,1715799.16,3.7309607
2.83,48.224033,16.748135,394.61917,42.44447658000001,-0.0069098454,0.0150267435,15.03883,0.00626687266146636,-0.00031151052,-0.0015784164,1845730.83,0.6993138
2.84,47.485493,13.086025,434.44543,42.59457552000001,-0.0028160396,-0.01677576,15.009894,0.0012244453811076634,-0.0012842045,-0.005766161,1805904.5699999998,1.886371
2.85,47.959877,13.846613,380.43112,42.74476969000001,0.014651962,0.018553685,15.019417,0.0023460305391221014,-0.0010229241,-0.0072202035,1859918.88,0.68171776
2.86,47.487114,14.972487,463.10727,42.89470650000001,0.0029833172,0.0009702667,14.993681,0.0012206126342227807,-0.0017226164,-0.0038464447,1777242.73,5.9808246
2.87,47.585835,14.356769,426.3863,43.044820080000015,0.03518089,-0.009780343,15.011358,-0.0038082742724125157,-0.00033730883,0.0033445773,1813963.6999999997,-0.26417268
2.88,47.079235,12.839591,471.0742,43.19444892000001,-0.008380295,-0.010308446,14.962884,0.0024953955172429135,0.001182552,0.0045434237,1769275.7999999998,1.0178628
2.89,47.32924,14.882749,487.78253,43.34446351000002,-0.006143959,0.02361872,15.001459,0.0005615678852191447,-0.0015794353,-0.0046255914,1752567.47,-1.3269741
2.9,48.078014,17.04048,427.7516,43.494536730000014,-0.023657238,-0.016879756,15.007322,-0.0017134687063728833,-0.0011186388,-0.0055336095,1812598.4,0.3373949
2.91,47.67036,12.513018,403.2392,43.64539348000002,0.027661268,-0.03487693,15.085675,0.0009560275832981923,-0.0017517426,-0.007337362,1837110.7999999998,-1.6034043
2.92,46.43184,11.259514,509.05606,43.79541844000001,-0.033254366,-0.014258818,15.002496,0.0006255539253718547,0.0009994318,0.008010166,1731293.94,0.6769043
2.93,48.845913,17.89905,333.92587,43.94589557000002,-0.025287796,-0.017883241,15.047713,0.0024313540940368696,-0.0006816747,-0.0020170794,1906424.13,-3.3872142
2.94,48.79404,20.613684,363.31342,44.095463140000014,0.006024535,0.0028043527,14.956757,0.00013609756013534065,-0.0015207626,-0.0074836807,1877036.58,1.8898626
2.95,47.469303,15.061095,451.6318,44.245363550000015,-0.0069976724,-0.011695128,14.990041,-0.0007052054580098596,0.0022913339,0.009649096,1788718.1999999997,-3.5776722000000003
2.96,47.125122,12.264653,462.5857,44.395537980000014,-0.0167035,0.021668572,15.017443,0.0020489936481933794,-0.0015024119,-0.0072343955,1777764.2999999998,1.2083321
2.97,48.03736,16.39067,402.23584,44.546089940000016,0.024939997,-0.00087080925,15.055196,0.0032975699289251098,0.0013384141,0.011088604,1838114.16,-0.045335705999999996
2.98,47.51595,15.0301285,445.54565,44.69617382500001,-0.0026241378,0.0038026385,15.0083885,9.379790940497834e-06,0.0014539474,0.0061530443,1794804.3499999999,-1.4084809
2.99,47.05627,11.373249,448.92276,44.846397095000015,0.012542106,-0.02134644,15.022327,0.0022194040214185066,-0.0015505081,-0.009489907,1791427.24,2.5123026999999998
3.0,47.6433,13.417052,399.83005,44.99689704500001,0.01913297,0.016888086,15.049995,0.001533002283418584,0.0011067496,0.005051192,1840519.95,-1.8040508
3.01,47.254852,13.930935,460.51425,45.14648747500001,0.010498557,0.0032593769,14.959043,0.002724864336183974,-7.8518235e-05,-0.0012325188,1779835.75,2.3966361999999997
3.02,47.908344,15.116737,397.05267,45.29643009500001,0.01689215,-2.3407976e-05,14.994262,0.004466151489721585,0.0024028071,0.015697729,1843297.3299999998,-1.0469987
3.03,48.577793,18.555721,350.12622,45.44619510000001,0.008932092,0.011459774,14.9765005,0.004264608292841438,-0.0018294951,-0.010217159,1890223.7799999998,6.543337
3.04,47.508236,13.821068,438.8254,45.59649549000002,0.018949553,-0.009519959,15.030039,-4.783275257677173e-05,-0.0007332092,-0.0042270506,1801524.5999999999,1.0256581
3.05,48.25267,17.302639,375.3504,45.74719654000001,0.017669665,-0.0033689775,15.070105,-0.0010132958204405512,0.000829396,0.00044115796,1864999.5999999999,3.5561770000000004
3.06,47.806763,17.236015,453.58658,45.89733481000002,-0.013427832,0.0013576914,15.013827,0.0030388268829152016,0.0017060081,0.0068671363,1786763.4199999997,4.2460556
3.07,46.994,11.563407,442.08722,46.047258280000015,-0.021473499,-0.007839611,14.992347,0.000897024149646318,-0.00041031136,-0.0027624725,1798262.78,0.37342712
3.08,48.07476,17.308973,410.98373,46.19724708000002,0.012474028,-0.0017422271,14.99888,0.002890953618623259,0.0012756761,0.006172893,1829366.27,6.717409
3.09,46.44608,10.247405,532.73236,46.346863780000014,-0.014776673,0.015754826,14.96167,0.004905612216328397,-0.0020790515,-0.013284132,1707617.64,2.564055
3.1,46.64791,11.653976,498.72232,46.49642289000002,-0.014135547,-0.0024875852,14.955911,-0.003553573892054996,-0.00037801755,0.002369828,1741627.68,-0.8204556
3.11,47.940666,14.901501,378.562,46.646732080000014,0.01688985,-0.020552274,15.030919,-0.0022813061469436225,0.00032605286,0.0006140196,1861788.0,1.6060576
3.12,48.72956,19.340294,378.69394,46.797049520000016,0.033227123,-0.0015683945,15.031744,-0.00042975607110374306,-0.00030414984,0.0037139785,1861656.0599999998,-3.5509607
3.13,47.053955,13.361093,461.21594,46.947820960000016,-0.015662767,0.0049270815,15.077144,0.000344529603092765,0.00028846643,0.0030229427,1779134.0599999998,1.7199125
3.14,47.393,12.951331,391.7175,47.09818121000002,-0.005616016,-0.015799152,15.036025,-0.0012689191795741742,-5.0299917e-05,-0.0019702653,1848632.5,2.6976934
3.15,47.45069,13.407508,463.74704,47.24767342000002,0.0036842045,-0.0067082625,14.949221,-0.0011843966587211689,-0.0014526256,-0.0063461894,1776602.96,2.6256028000000002
3.16,47.08522,13.218513,491.91083,47.39748463000002,-0.023040006,0.0013897745,14.981121,0.0018943670719171375,0.0006873079,0.0009864366,1748439.17,-2.1634813999999998
3.17,48.372093,17.671106,373.39023,47.54759187000002,0.021339325,-0.008672937,15.010724,0.005206531350539459,-0.0012786709,-0.009671677,1866959.77,3.4476067
3.18,46.913315,10.562428,451.71353,47.698178920000025,-0.01905337,0.007802098,15.058705,-0.00045648777317023427,0.00042001647,0.00062317634,1788636.47,-2.1604886000000003
3.19,48.49565,17.376825,347.4916,47.84857167000002,-0.009825509,-0.008242119,15.039275,0.0005357490776616905,-0.0007740217,-0.00405189,1892858.4,-1.6953516000000002
3.2,47.769947,15.801148,422.62933,47.998456430000026,-0.017316625,-0.03374996,14.988476,4.34355400423924e-05,0.0017929078,0.01046502,1817720.67,-1.3190104999999999
3.21,47.72635,15.6076975,416.65518,48.14916126000002,0.009808212,0.027259534,15.070483,0.0006606688934233548,0.0034119522,0.016011154,1823694.8199999998,3.4473936999999997
3.22,48.72687,18.96183,402.19922,48.29913887000002,-0.015456273,0.0018797514,14.997761,0.0022090138284565166,-0.00056615187,-0.005334668,1838150.78,-1.8807406999999998
3.23,47.053127,12.460222,458.97586,48.449513025000016,-0.0052213497,-0.01689066,15.0374155,-0.0026198685704362868,0.0003375741,0.0033347001,1781374.14,-2.6576628
3.24,47.270554,11.411882,424.23392,48.59952241500002,-0.005853808,0.008952831,15.000939,-0.0001741672456256875,-0.0022383202,-0.01049283,1816116.0799999998,-0.56327996
3.25,47.367184,13.665847,437.52997,48.74902022500002,-0.0027418335,-0.006550716,14.949781,0.0015411346683862743,0.0012792317,0.0046700323,1802820.0299999998,-1.2523317
3.26,48.12378,17.091139,415.09964,48.899001675000015,0.014542613,-0.015566451,14.998145,0.0005102926386336456,0.00045530457,-0.00054765807,1825250.36,5.5898763
3.27,46.710686,10.953264,476.62073,49.04906419500002,0.020913156,0.0028682,15.006252,0.0010106059277247197,0.00038444618,0.0017765273,1763729.2699999998,-1.2880226
3.28,46.679947,10.319688,469.07825,49.19905923500002,0.024080511,-0.013306163,14.999504,-0.0015867791560366467,0.00027494942,-0.0014689086,1771271.75,6.193173
3.29,48.258755,18.341982,389.43585,49.349322935000025,0.024794871,-0.010039911,15.02637,-6.381881524434469e-05,-0.00045566534,-0.000604326,1850914.15,7.276775
3.3,46.651714,11.975973,509.04578,49.499526825000025,-0.0116662085,0.013427565,15.020389,0.003135474045362221,-0.00047521573,-0.0021384994,1731304.22,1.2907924
3.31,48.005657,15.502088,403.4214,49.64944785500003,-0.01463222,-0.024248132,14.992103,0.004189947606163509,0.00013205966,0.0024877642,1836928.5999999999,-1.817035
3.32,49.50572,23.879805,322.2835,49.799662955000024,0.0031866408,-0.007561187,15.02151,0.0020378159945175795,-0.0023533476,-0.010037791,1918066.5,3.4563723000000004
3.33,47.332657,13.324207,436.54163,49.949466345000026,0.002100647,-0.009010021,14.980339,0.002498308391069271,-0.0027353107,-0.013319949,1803808.3699999999,4.100625
3.34,47.826454,13.924684,394.3645,50.10004186500002,-0.0014008691,-0.0049132477,15.057552,0.002698300071574631,-0.002574192,-0.012722645,1845985.4999999998,0.70415507
3.35,48.58247,18.659077,394.75497,50.24947450500002,-0.014127488,-0.00865054,14.943264,-0.0017672734214396594,-0.0021144012,-0.0067363363,1845595.03,-2.4971289999999997
3.36,47.788567,15.471917,397.2008,50.39948398500002,0.007996108,-0.011467751,15.000948,0.0008906408794848403,-0.00042466776,0.0002113136,1843149.1999999997,2.1572039999999997
3.37,48.2212,18.691391,387.60825,50.54942178500002,0.008344372,0.010758935,14.99378,0.0036903107740062922,0.00011199908,-0.003840331,1852741.75,9.526164999999999
3.38,47.487255,13.102695,411.8113,50.699842175000015,0.004431732,0.008551355,15.042039,3.694076653373939e-05,0.00095351017,0.00817228,1828538.6999999997,-2.5505153
3.39,48.016655,16.541168,421.35193,50.85028062500002,0.023888022,-0.018455457,15.043845,0.00560196927338408,-0.0008665946,-0.0056600017,1818998.0699999998,2.4789578999999997
3.4,47.326344,14.022803,489.80246,50.99919644500002,0.0050544566,0.0023030834,14.891582,9.282926802605152e-05,0.0004370043,0.0061740046,1750547.54,2.9431144
3.41,47.455574,15.199323,485.8754,51.14866637500002,0.032626234,-0.040266383,14.946993,0.001508974464441476,0.00043322917,0.0048894193,1754474.6,-2.5976675
3.42,46.952126,13.317026,505.65173,51.29859862500002,0.0033895837,0.0014445784,14.993225,-9.62090589366037e-05,0.0011840212,0.0067652687,1734698.2699999998,-0.57282014
3.43,47.75656,15.41178,433.1627,51.44845820500002,-0.0020779,-0.017005244,14.985958,0.0023463023146296194,0.0012353405,0.0063145803,1807187.3,-1.5716171
3.44,47.232273,12.565859,457.7327,51.59898448500002,-0.003434486,-0.014895996,15.052628,0.0028396160610167876,-0.0015326763,-0.008727942,1782617.2999999998,1.1932232
3.45,46.783314,11.062727,511.4608,51.74860120500002,0.008726123,-0.007299238,14.961672,0.005689192974060996,0.0015013183,0.0027406062,1728889.2,3.0561723
3.46,47.314884,13.802644,490.51532,51.898125225000015,-0.044981748,0.001391393,14.952402,0.0029004796711492985,-0.0007087407,0.00042630342,1749834.68,1.3202671
3.47,47.291702,13.1854515,461.98724,52.04800652500002,0.0134535,0.012478662,14.98813,-8.247386740883926e-05,-0.0026960894,-0.013778185,1778362.76,1.1631494
3.48,47.419613,14.403188,461.1611,52.19829172500002,0.024053823,0.008094362,15.02852,0.004378522541544122,-0.00091086177,-0.0005085621,1779188.9,3.0880644999999998
3.49,47.1004,12.797527,475.2276,52.348205005000025,-0.0010701545,0.008019136,14.991328,0.0037966577156364686,-0.0003459721,0.0052070804,1765122.4,0.9194112
3.5,47.80331,14.723011,434.64087,52.49852228500002,0.020473737,-0.007613878,15.031728,0.0033902448507744953,-0.0008334941,-0.0029703141,1805709.13,-2.2631418
3.51,45.35363,5.798566,587.28973,52.64805519500002,-0.017647851,0.01871042,14.953291,0.005949860102588889,-0.0022571615,-0.013820585,1653060.27,4.4402773
3.52,47.23059,14.121173,483.4874,52.798022135000025,0.015176282,0.0075887484,14.996694,0.006275367100916347,-0.00045140623,-0.0045473822,1756862.5999999999,3.549737
3.53,47.56222,15.127981,454.07657,52.94769548500002,0.005607336,0.0026159582,14.967335,0.00033049476148621347,2.377486e-05,0.0007264956,1786273.43,-0.17901883
3.54,47.995293,17.901144,384.1986,53.098064925000024,0.014995519,-0.01377638,15.036944,-0.00017248780316743328,0.0015675437,0.01416189,1856151.4,1.7602373999999998
3.55,48.368565,17.84444,361.04358,53.24861748500002,0.002323702,-0.0023315346,15.055256,0.0024633120907761783,-0.00030556766,-0.0017864866,1879306.42,1.1324607
3.56,48.63273,18.80745,366.36713,53.398698465000024,-0.014327512,0.008113493,15.008098,0.00187919639421702,0.0019562342,0.00334421,1873982.8699999999,-1.0359893
3.57,47.316856,13.1621,461.9823,53.54834545500002,0.004121742,0.027672084,14.964699,0.00035906618665930846,-0.0022305658,-0.0076043135,1778367.6999999997,1.8002151
3.58,46.54851,12.575369,514.357,53.69862509500002,-0.0016763256,0.012345625,15.027964,-0.0016021449706301867,0.002319407,0.009770546,1725993.0,4.362403
3.59,48.312164,17.821613,371.4859,53.84882801500002,0.011087311,-0.01149081,15.020292,0.00014199999904558462,-0.0023379216,-0.009203798,1868864.0999999999,5.8246423
3.6,47.160065,13.854116,492.64688,53.99820355500002,0.0061500524,0.03892312,14.937554,-5.630662020851121e-06,-0.0012682311,-0.0005022518,1747703.1199999999,4.493345000000001
3.61,49.358147,20.864279,315.7244,54.14782882500001,0.0067091393,0.013082814,14.962527,0.0002979442420548307,-0.002346839,-0.0121118445,1924625.5999999999,0.40681398
3.62,45.904587,8.841537,542.2566,54.29789383500002,0.0027494864,0.02257145,15.006501,0.00099416691985245,-0.0013998776,-0.0031160605,1698093.3999999997,1.1525657
3.63,46.802895,11.785491,509.28177,54.447978745000015,0.007975848,0.026367705,15.008491,-0.0019288059704583196,-0.00030775665,-0.00041670352,1731068.2299999997,-4.2691124
3.64,46.87693,11.674931,492.9753,54.598238205000015,-0.00852319,-0.0011570825,15.025946,-0.00022289895101233704,0.00010603288,-0.00089123007,1747374.7,-2.1822404
3.65,46.575977,10.97589,512.5735,54.74865936500001,0.0066401316,0.0047135325,15.042116,0.001411915438085604,-0.0019245187,-0.010721769,1727776.5,3.8563234
